[{"website": "http://www.1334.ca", "name": "Hatch/Javelin Technolgies/Teradata/Martinrea & Hydroform/Central Technology Services/Professional Engineers of Ontario/Optimist Club of Oakville/Susan Diane Brown/Derek Blakely Wealth Management/Lacey Instrumentation/Holcim Canada/Zzen & Oakville-Trafalgar High School", "locality": "Oakville", "rookie_year": 2004, "region": "Ontario", "team_number": 1334, "location": "Oakville, Ontario, Canada", "key": "frc1334", "country_name": "Canada", "motto": "Where science takes action", "nickname": "Red Devils"}, {"website": "http://en-evolution2626.weebly.com/", "name": "Seminaire de Sherbrooke Foundation/Bombardier/Sherbrooke Rotary Club/MI-Integration/Neidner/CIMA+ & Seminaire de Sherbrooke", "locality": "Sherbrooke", "rookie_year": 2008, "region": "Qu\u00e9bec", "team_number": 2626, "location": "Sherbrooke, Qu\u00e9bec, Canada", "key": "frc2626", "country_name": "Canada", "motto": "Evolution Pure & Simple", "nickname": "Evolution"}, {"website": "http://robotics.loyola.ca", "name": "Hypertherm Robotics HOPE Foundation / RBC Phillips Hager and North / Universel Security Equipment / Fruiterie Dollard & Loyola High School & Sacred Heart", "locality": "Montr\u00e9al", "rookie_year": 1999, "region": "Qu\u00e9bec", "team_number": 296, "location": "Montr\u00e9al, Qu\u00e9bec, Canada", "key": "frc296", "country_name": "Canada", "motto": "\"Robots for Others\"", "nickname": "Northern Knights"}, {"website": "http://www.firstinspires.org/", "name": "Bombardier A\u00e9ronautique/Universit\u00e9 de Sherbrooke/BRP/24 juin/CSRS/UTC & Triolet", "locality": "Sherbrooke", "rookie_year": 2009, "region": "Qu\u00e9bec", "team_number": 3117, "location": "Sherbrooke, Qu\u00e9bec, Canada", "key": "frc3117", "country_name": "Canada", "motto": null, "nickname": "Harfangs"}, {"website": "http://www.tecbot.com.mx", "name": "General Motors M\u00e9xico / Tec de Monterrey, Campus Toluca & ITESM Campus Toluca", "locality": "Toluca", "rookie_year": 2010, "region": "Mexico", "team_number": 3158, "location": "Toluca, Mexico, Mexico", "key": "frc3158", "country_name": "Mexico", "motto": "\"Unlimited Success\"", "nickname": "TECBOT"}, {"website": "http://hyperion3360.com/", "name": "Fondation pour les \u00e9l\u00e8ves de la commission scolaire de la region de Sherbrooke/Bombardier/BRP/FIRST Quebec/Sherbrooke University/CEGEP de Sherbrooke/CSRS/La Mont\u00e9e (Le Ber)  High School/Set 47/Ball/Guy Hardy - D\u00e9put\u00e9 provincial de St-Francois/Club Optimiste de Sherbrooke/Media-5/Colma-Tech-Fissures/Enerkem/La Fondation Le Ber/Domtar/Depanneur l'urgence Orford/Virtaweb/\u00c9lectronique Raybel /Pierre-Luc Dusseault-D\u00e9put\u00e9 f\u00e9d\u00e9ral de Sherbrooke/Normandin/Geratek/Margitek, Entrepreneur g\u00e9n\u00e9ral/Provigo St\u00e9phane Tremblay/IGA Extra Couture/Alain Haddad Familiprix Sherbrooke/Patrick Boislard/HyperShell/Batterie Expert/Marcel Dufresne/Michel Dufresne, Urbaniste/R\u00e9mi Demers/Timber Mart/Electro-5/Cherbourg & La Mont\u00e9e ", "locality": "Sherbrooke", "rookie_year": 2010, "region": "Qu\u00e9bec", "team_number": 3360, "location": "Sherbrooke, Qu\u00e9bec, Canada", "key": "frc3360", "country_name": "Canada", "motto": "Somebody told us that was impossible. So, we did it !", "nickname": "Hyperion"}, {"website": "http://www.firstinspires.org/", "name": "La famille Beaudoin / Valero  / \u00c9cole des m\u00e9tiers de l'horticulture / CSDM / CSC & Ecole Pierre-Dupuy", "locality": "Montr\u00e9al", "rookie_year": 2010, "region": "Qu\u00e9bec", "team_number": 3379, "location": "Montr\u00e9al, Qu\u00e9bec, Canada", "key": "frc3379", "country_name": "Canada", "motto": null, "nickname": "M\u00e9cani-Wolf"}, {"website": "http://www.firstinspires.org/", "name": "Hydro Qu\u00e9bec/CSPI & Ecole Henri-Bourassa", "locality": "Montr\u00e9al", "rookie_year": 2010, "region": "Qu\u00e9bec", "team_number": 3382, "location": "Montr\u00e9al, Qu\u00e9bec, Canada", "key": "frc3382", "country_name": "Canada", "motto": null, "nickname": "Les B\u00e9liers"}, {"website": "sites.google.com/site/lestornades3386/", "name": "Hydro Qu\u00e9bec/Fusion Jeunesse/UTC/CSC/CSDM & \u00c9cole St-Henri", "locality": "Montr\u00e9al", "rookie_year": 2010, "region": "Qu\u00e9bec", "team_number": 3386, "location": "Montr\u00e9al, Qu\u00e9bec, Canada", "key": "frc3386", "country_name": "Canada", "motto": null, "nickname": "Tornades"}, {"website": "http://www.firstinspires.org/", "name": "CGI/Fusion Jeunesse/Polytechnique/CSDM & Ecole Honor\u00e9-Mercier", "locality": "Montr\u00e9al", "rookie_year": 2010, "region": "Qu\u00e9bec", "team_number": 3387, "location": "Montr\u00e9al, Qu\u00e9bec, Canada", "key": "frc3387", "country_name": "Canada", "motto": null, "nickname": "Les Aigles d'Or"}, {"website": "http://www.firstinspires.org/", "name": "H\u00e9roux Devtek/Pratt&Whitney Canada - UTC/CSC/Averna/CSMV & Monseigneur A.-M.-Parent & HOME SCHOOL", "locality": "Saint-Hubert", "rookie_year": 2011, "region": "Qu\u00e9bec", "team_number": 3532, "location": "Saint-Hubert, Qu\u00e9bec, Canada", "key": "frc3532", "country_name": "Canada", "motto": "We live to learn", "nickname": "Piranha"}, {"website": "https://sites.google.com/site/mekanolp/", "name": "CAE/Fusion Jeunesse/Polytechnique/CSDM & Ecole Lucien-Pag\u00e9", "locality": "Montr\u00e9al", "rookie_year": 2011, "region": "Qu\u00e9bec", "team_number": 3533, "location": "Montr\u00e9al, Qu\u00e9bec, Canada", "key": "frc3533", "country_name": "Canada", "motto": "Work hard and all your dreams will come true", "nickname": "M\u00e9kano"}, {"website": "http://spartiates3544.wordpress.com/", "name": "Google Canada/CSPI/CAE/CSC/Pratt&Whitney/Hewitt & Ecole Calixa-Lavall\u00e9e", "locality": "Montreal-Nord", "rookie_year": 2011, "region": "Qu\u00e9bec", "team_number": 3544, "location": "Montreal-Nord, Qu\u00e9bec, Canada", "key": "frc3544", "country_name": "Canada", "motto": null, "nickname": "Spartiates"}, {"website": "In process", "name": "Pratt & Whitney Canada; UTC / Speico / CSC / CSMB & Ecole Cavelier-de LaSalle", "locality": "Lasalle", "rookie_year": 2011, "region": "Qu\u00e9bec", "team_number": 3550, "location": "Lasalle, Qu\u00e9bec, Canada", "key": "frc3550", "country_name": "Canada", "motto": null, "nickname": "Robotronix"}, {"website": "http://www.firstinspires.org/", "name": "Google Canada/\u00c9cole Polytechnique/Fusion Jeunesse/CSDM & Ecole P\u00e8re-Marquette", "locality": "Montreal", "rookie_year": 2012, "region": "Qu\u00e9bec", "team_number": 3969, "location": "Montreal, Qu\u00e9bec, Canada", "key": "frc3969", "country_name": "Canada", "motto": null, "nickname": "Phoenix"}, {"website": "https://www.facebook.com/pages/ESJM-Robotique/264631943657457?ref_type=bookmark", "name": "UTC/BMO/UQAM/Fusion Jeunesse/Pratt&whitney/CSDM & Ecole Jeanne-Mance", "locality": "Montreal", "rookie_year": 2012, "region": "Qu\u00e9bec", "team_number": 3975, "location": "Montreal, Qu\u00e9bec, Canada", "key": "frc3975", "country_name": "Canada", "motto": null, "nickname": "Les Dragons"}, {"website": "http://3981lesloups.weebly.com", "name": "CGI / ETS / CSDM & Ecole Le Vitrail", "locality": "montreal", "rookie_year": 2012, "region": "Qu\u00e9bec", "team_number": 3981, "location": "montreal, Qu\u00e9bec, Canada", "key": "frc3981", "country_name": "Canada", "motto": "Le Vitrail Ose Unir Pers\u00e9v\u00e9rance et Savoir", "nickname": "Les LOUPS"}, {"website": "https://lcchssonichowl3985.wordpress.com", "name": "Vigilant Global/Lester B. Pearson School Board & LaSalle Community Comprehensive High School", "locality": "Montreal", "rookie_year": 2012, "region": "Qu\u00e9bec", "team_number": 3985, "location": "Montreal, Qu\u00e9bec, Canada", "key": "frc3985", "country_name": "Canada", "motto": null, "nickname": "Sonic Howl"}, {"website": "http://www.express-o.ca", "name": "Banque Nationale/MDA/M\u00e9tro Somerled/Fusion Jeunesse/CSMB & \u00c9cole secondaire Saint-Laurent", "locality": "St laurent", "rookie_year": 2012, "region": "Qu\u00e9bec", "team_number": 3986, "location": "St laurent, Qu\u00e9bec, Canada", "key": "frc3986", "country_name": "Canada", "motto": "Pas de stress, on est l'Express!", "nickname": "Express-O"}, {"website": "http://scarabot.weebly.com", "name": "Desjardins Caisse De Lorimier-Villeray / CAE / Flexpipe / CSDM / Robocut / Fusion Jeunesse & Ecole Georges-Vanier", "locality": "Montreal", "rookie_year": 2012, "region": "Qu\u00e9bec", "team_number": 3988, "location": "Montreal, Qu\u00e9bec, Canada", "key": "frc3988", "country_name": "Canada", "motto": null, "nickname": "Scarabot"}, {"website": "http://www.team3990.com", "name": "ABB / APCRA / BCGO / Photo Laplante / CDRST / Stylo.ca & College Regina Assumpta", "locality": "Montr\u00e9al", "rookie_year": 2012, "region": "Qu\u00e9bec", "team_number": 3990, "location": "Montr\u00e9al, Qu\u00e9bec, Canada", "key": "frc3990", "country_name": "Canada", "motto": "A vision, a motivation, an energy.", "nickname": "Tech for Kids"}, {"website": "http://www.rikitik.ca", "name": "Power Corporation/Ville de Rimouski/Telus/Banque Nationale/UQAR/Metallium/Dynaco BMR/Cegep de Rimouski/Groupe Inox Cote/Securite Medic & Ecole Paul-Hubert", "locality": "Rimouski", "rookie_year": 2012, "region": "Qu\u00e9bec", "team_number": 3996, "location": "Rimouski, Qu\u00e9bec, Canada", "key": "frc3996", "country_name": "Canada", "motto": "One team! One Region!", "nickname": "RIKITIK"}, {"website": "http://www.team4001.com", "name": "Quanser Inc./Foxwood Inc./PTC/Striowski and Associates/Spectrum Nasco/Sayal Electronics/YCDSB/First Robotics Canada/George's Tastee/ventureLAB & St. Robert CHS", "locality": "Thornhill", "rookie_year": 2012, "region": "Ontario", "team_number": 4001, "location": "Thornhill, Ontario, Canada", "key": "frc4001", "country_name": "Canada", "motto": "Every piece has its place", "nickname": "Retro-Rams"}, {"website": "http://www.firstinspires.org/", "name": "Delastek & S\u00e9minaire Sainte-Marie", "locality": "Shawinigan", "rookie_year": 2012, "region": "Qu\u00e9bec", "team_number": 4007, "location": "Shawinigan, Qu\u00e9bec, Canada", "key": "frc4007", "country_name": "Canada", "motto": null, "nickname": "Les Cactus"}, {"website": "http://www.firstinspires.org/", "name": "BRP/Future Electronics/Youth Fusion & Richmond Regional High School & Richmond Regional High School", "locality": "Richmond", "rookie_year": 2013, "region": "Qu\u00e9bec", "team_number": 4491, "location": "Richmond, Qu\u00e9bec, Canada", "key": "frc4491", "country_name": "Canada", "motto": null, "nickname": "Richmond Knights"}, {"website": "http://leomega.csaffluents.qc.ca/", "name": "Future Electronics/Sobeys/FPES & Ecole L\u00e9opold-Gravel", "locality": "Terrebonne", "rookie_year": 2013, "region": "Qu\u00e9bec", "team_number": 4526, "location": "Terrebonne, Qu\u00e9bec, Canada", "key": "frc4526", "country_name": "Canada", "motto": null, "nickname": "L\u00e9om\u00e9ga"}, {"website": "http://www.firstinspires.org/", "name": "Pratt & Whitney Canada/UTC/RBC Phillips Hager and North FRC Grant/CSDM/CSC/Caisse populaire Desjardins Mercier-Rosemont/AVREX Canada Inc. & \u00c9cole Marguerite-De Lajemmerais ", "locality": "Montreal", "rookie_year": 2013, "region": "Qu\u00e9bec", "team_number": 4594, "location": "Montreal, Qu\u00e9bec, Canada", "key": "frc4594", "country_name": "Canada", "motto": null, "nickname": "Ph\u00e9minix"}, {"website": "http://www.firstinspires.org/", "name": "Camso / Fondation du Sal\u00e9sien / Le Sal\u00e9sien / Argosy Foundation / Usinage Marcel Ferland inc. / Carroserie 2000 Procolor / Conceptromec / R\u00e9frig\u00e9ration Morin / \u00c9lectro-5 / Imagerie Digitale / Ville de Sherbrooke / Robotique FIRST Qu\u00e9bec & Le Sal\u00e9sien", "locality": "Sherbrooke", "rookie_year": 2014, "region": "Qu\u00e9bec", "team_number": 4942, "location": "Sherbrooke, Qu\u00e9bec, Canada", "key": "frc4942", "country_name": "Canada", "motto": null, "nickname": "Spartech"}, {"website": "www.fenix4947.csvdc.qc.ca", "name": "GE Aviation Bromont/Walmart Cowansville/Les amis de Massey-Vanier/Nez rouge Cowansville/Ville de Cowansville (tournoi de golf du maire)/Jean Coutu Julie Coderre Cowansville/Commission scolaire Val-des-Cerfs/Campus Brome-Missisquoi/Loblaw Cowansville/Usinage Altech/Laser AMP/Proax/Manufacture Scorpion/Traitement de surface Ellisson/Technologies Dema/Show Devant/Boulet et Desrosiers/Kindo design/La Quintescence/Skysoft/Raymond Chabot Grant Thornton Cowansville/Formule Ford/Pierre Paradis/Canton de Bedford & \u00c9cole secondaire Massey-Vanier", "locality": "Cowansville", "rookie_year": 2014, "region": "Qu\u00e9bec", "team_number": 4947, "location": "Cowansville, Qu\u00e9bec, Canada", "key": "frc4947", "country_name": "Canada", "motto": null, "nickname": "Fenix"}, {"website": "http://www.firstinspires.org/", "name": "Power Corporation/Fondation Argosy/Wainbee Qu\u00e9bec/Commission scolaire des Premi\u00e8res-Seigneuries & Ecole La Courvilloise", "locality": "Qu\u00e9bec", "rookie_year": 2014, "region": "Qu\u00e9bec", "team_number": 4950, "location": "Qu\u00e9bec, Qu\u00e9bec, Canada", "key": "frc4950", "country_name": "Canada", "motto": null, "nickname": "Centaures"}, {"website": "carnicas4952.csdessommets.qc.ca", "name": "Armtex/Argosy Fundation/Conceptromex/Quais Bertrand/Desjardins, Caisse du lac-Memphr\u00e9magog/La Maison Olea/Wall-mart, Magog/Universit\u00e9 de Sherbrooke/Ludovic St-Laurent/Robotique FIRST Qu\u00e9bec & Ecole La Ruche", "locality": "Magog", "rookie_year": 2014, "region": "Qu\u00e9bec", "team_number": 4952, "location": "Magog, Qu\u00e9bec, Canada", "key": "frc4952", "country_name": "Canada", "motto": "Busy as bee's", "nickname": "Les Carnicas"}, {"website": "http://www.frc4955.com", "name": "CAE/McGill Unversity/Argosy Foundation/Lester B. Pearson School Board/Youth Fusion Jeunesse/Urban Impressionz Inc./Dawson College/SolidWorks & Lakeside Academy", "locality": "Lachine", "rookie_year": 2014, "region": "Qu\u00e9bec", "team_number": 4955, "location": "Lachine, Qu\u00e9bec, Canada", "key": "frc4955", "country_name": "Canada", "motto": null, "nickname": "LA Tech"}, {"website": "http://frc4957lynx.jimdo.com/", "name": "Power Corporation/Fusion Jeunesse/CSPI & Ecole Daniel Johnson", "locality": "Montr\u00e9al", "rookie_year": 2014, "region": "Qu\u00e9bec", "team_number": 4957, "location": "Montr\u00e9al, Qu\u00e9bec, Canada", "key": "frc4957", "country_name": "Canada", "motto": "Yes we can", "nickname": "Lynx"}, {"website": "http://robeauce.org", "name": "Groupe Canam/Manac/Prodevco Industries Inc./Cimic/Rotobec/Comact/PHL/Fusion jeunesse/Garaga/M\u00e9canium/Kennebec Dodge Chrysler/Carrefour Saint-Georges & Polyvalente de St-Georges", "locality": "St-Georges", "rookie_year": 2014, "region": "Qu\u00e9bec", "team_number": 5095, "location": "St-Georges, Qu\u00e9bec, Canada", "key": "frc5095", "country_name": "Canada", "motto": null, "nickname": "RoBeauce"}, {"website": "www.senateurs5179.com", "name": "Soucy International / Canimex / Carri\u00e8res PCM / \u00c9quipements Y.Perreault / CMI / CarbonLeo / BRP / Lafert\u00e9 / Groupe Infoplus / Groupe Verrier / S\u00e9bastien Schneeberger / Andr\u00e9 Lamontagne / Fran\u00e7ois Choquette & Coll\u00e8ge St-Bernard", "locality": "Drummondville", "rookie_year": 2014, "region": "Qu\u00e9bec", "team_number": 5179, "location": "Drummondville, Qu\u00e9bec, Canada", "key": "frc5179", "country_name": "Canada", "motto": null, "nickname": "Les S\u00e9nateurs"}, {"website": "https://www.facebook.com/pages/Robotique-FRC-2015-Huskies/1652445874982256", "name": "WSP Canada & Polyvalente de Charlesbourg", "locality": "Qu\u00e9bec", "rookie_year": 2015, "region": "Qu\u00e9bec", "team_number": 5439, "location": "Qu\u00e9bec, Qu\u00e9bec, Canada", "key": "frc5439", "country_name": "Canada", "motto": null, "nickname": "Huskies"}, {"website": "www.leschevaliersfirst.com", "name": "Future Electronics/2015 FRC Rookie Grant/Ecole secondarie de La Seigneurie/Fondation des Premieres Seigneuries/Future Shop Beauport/Bingo du coeur/IGA Laflamme/Batterie Expert/Canadian Tire & \u00c9cole de la Seigneurie", "locality": "Qu\u00e9bec", "rookie_year": 2015, "region": "Qu\u00e9bec", "team_number": 5440, "location": "Qu\u00e9bec, Qu\u00e9bec, Canada", "key": "frc5440", "country_name": "Canada", "motto": null, "nickname": "Les Chevaliers FIRST"}, {"website": "http://www.firstinspires.org/", "name": "Fusion Jeunesse/Stikeman Elliott & \u00c9cole secondaire de la Pointe-aux-Trembles", "locality": "Montr\u00e9al", "rookie_year": 2015, "region": "Qu\u00e9bec", "team_number": 5443, "location": "Montr\u00e9al, Qu\u00e9bec, Canada", "key": "frc5443", "country_name": "Canada", "motto": null, "nickname": "Les PATenteux"}, {"website": "http://www.firstinspires.org/", "name": "Robotique FIRST Qu\u00e9bec/AGT /Fab3R/2015 FRC Rookie Grant & S\u00e9minaire Saint-Joseph", "locality": "Trois-Rivi\u00e8res", "rookie_year": 2015, "region": "Qu\u00e9bec", "team_number": 5444, "location": "Trois-Rivi\u00e8res, Qu\u00e9bec, Canada", "key": "frc5444", "country_name": "Canada", "motto": null, "nickname": "VObotik"}, {"website": "www.tcats5526.com", "name": "Industrias Pe\u00f1oles & Colegio Americano de Torreon", "locality": "Torreon", "rookie_year": 2015, "region": "COA", "team_number": 5526, "location": "Torreon, COA, Mexico", "key": "frc5526", "country_name": "Mexico", "motto": "Excellence for Life Through Science and Technology", "nickname": "tCATs"}, {"website": "www.ultime5528.com", "name": "Ganotec/ARNO/Canadian Tire/Ordre des Ingenieurs du Quebec/Banque Nationale/RBC Dominium Groupe Groleau/Fondation Keranna/Omnimedia/Outibo/Robotique FIRST Quebec/Solution Informatique Trois-Rivieres & Institut Secondaire Keranna", "locality": "Trois-Rivi\u00e8res", "rookie_year": 2015, "region": "Qu\u00e9bec", "team_number": 5528, "location": "Trois-Rivi\u00e8res, Qu\u00e9bec, Canada", "key": "frc5528", "country_name": "Canada", "motto": "All together !", "nickname": "Ultime"}, {"website": "http://www.robolyon.com", "name": "Notre Dame de Bellegarde", "locality": "Neuville-sur-Sa\u00f4ne", "rookie_year": 2015, "region": "Rh\u00f4ne", "team_number": 5553, "location": "Neuville-sur-Sa\u00f4ne, Rh\u00f4ne, France", "key": "frc5553", "country_name": "France", "motto": null, "nickname": "Robo'lyon"}, {"website": "http://www.firstinspires.org/", "name": "Fusion Jeunesse/Polytechnique/CAE & Acad\u00e9mie de Roberval", "locality": "Montr\u00e9al", "rookie_year": 2015, "region": "Qu\u00e9bec", "team_number": 5570, "location": "Montr\u00e9al, Qu\u00e9bec, Canada", "key": "frc5570", "country_name": "Canada", "motto": null, "nickname": "Ookpik"}, {"website": "http://www.firstinspires.org/", "name": "CGI & Polyvalente La Samare", "locality": "Plessisville", "rookie_year": 2015, "region": "Qu\u00e9bec", "team_number": 5618, "location": "Plessisville, Qu\u00e9bec, Canada", "key": "frc5618", "country_name": "Canada", "motto": null, "nickname": "PLS"}, {"website": "http://frci.weebly.com/", "name": "Fortier CPA / C-MAC / Electro-5 / Usinage M. Ferland / Solidworks & Family Friends", "locality": "Canton de Hatley", "rookie_year": 2016, "region": "Qu\u00e9bec", "team_number": 5859, "location": "Canton de Hatley, Qu\u00e9bec, Canada", "key": "frc5859", "country_name": "Canada", "motto": "Be the exception", "nickname": "i"}, {"website": "droide5865.com", "name": "Canadian Tire / Cyber Impact / Cyber Generation & College Saint-Sacrement", "locality": "Terrebonne", "rookie_year": 2016, "region": "Qu\u00e9bec", "team_number": 5865, "location": "Terrebonne, Qu\u00e9bec, Canada", "key": "frc5865", "country_name": "Canada", "motto": "Autonomie. Creativite. Ingeniosite", "nickname": "Droide"}, {"website": "http://www.firstinspires.org/", "name": "FIRST Qu\u00e9bec/C\u00e9gep de Matane/Centre de Recherche et D\u00e9veloppement en Imagerie Num\u00e9rique (CDRIN)/Scierie L'Anc\u00e8dre/Chaussure POP & Polyvalente de Matane", "locality": "Matane", "rookie_year": 2016, "region": "Qu\u00e9bec", "team_number": 5910, "location": "Matane, Qu\u00e9bec, Canada", "key": "frc5910", "country_name": "Canada", "motto": "Pas de r\u00e9ussite sans \u00e9quipe", "nickname": "Supertronix"}, {"website": "http://www.firstinspires.org/", "name": "Ecole secondaire Monseigneur Richard", "locality": "Montr\u00e9al", "rookie_year": 2016, "region": "Qu\u00e9bec", "team_number": 5952, "location": "Montr\u00e9al, Qu\u00e9bec, Canada", "key": "frc5952", "country_name": "Canada", "motto": null, "nickname": "2.0 Science team"}, {"website": "http://www.firstinspires.org/", "name": "Lower Canada College", "locality": "Montreal", "rookie_year": 2016, "region": "Qu\u00e9bec", "team_number": 5994, "location": "Montreal, Qu\u00e9bec, Canada", "key": "frc5994", "country_name": "Canada", "motto": null, "nickname": "LCC"}, {"website": "http://www.firstinspires.org/", "name": "Tyndale St-Georges Community Center", "locality": "Montreal", "rookie_year": 2016, "region": "Qu\u00e9bec", "team_number": 6040, "location": "Montreal, Qu\u00e9bec, Canada", "key": "frc6040", "country_name": "Canada", "motto": null, "nickname": "Getobotics"}]