[{"website": "www.undercontrol1156.com", "name": "John Deere / PTC / National Instruments / Konrad Caminhoes / Novo Hamburgo City Hall / Severo Industria / Metalthaga & Marista Pio XII ", "locality": "Novo Hamburgo", "rookie_year": 2003, "region": "Rio Grande do Sul", "team_number": 1156, "location": "Novo Hamburgo, Rio Grande do Sul, Brazil", "key": "frc1156", "country_name": "Brazil", "motto": "Our mission is to build better people ", "nickname": "Under Control"}, {"website": "http://www.othsrobotics.com/", "name": "The Boeing Company/Verizon Wireless/Lockheed Martin/SAIC & O Fallon High School", "locality": "O'Fallon", "rookie_year": 2003, "region": "Illinois", "team_number": 1208, "location": "O'Fallon, Illinois, USA", "key": "frc1208", "country_name": "USA", "motto": "Fearless", "nickname": "Metool Brigade"}, {"website": "http://www.icrobotics.org", "name": "Rockwell Collins/Aero Antenna Technology & Iowa City High School & West Senior High School & Regina Inter-Parish Catholic Education Center", "locality": "Iowa City", "rookie_year": 1998, "region": "Iowa", "team_number": 167, "location": "Iowa City, Iowa, USA", "key": "frc167", "country_name": "USA", "motto": "SPRING (Students Promoting Robotics and Inspiring New Generations) Into Action!", "nickname": "Children of the Corn"}, {"website": "http://www.team171.com", "name": "John Deere/University of Wisconsin - Platteville & Platteville High", "locality": "Platteville", "rookie_year": 1995, "region": "Wisconsin", "team_number": 171, "location": "Platteville, Wisconsin, USA", "key": "frc171", "country_name": "USA", "motto": null, "nickname": "Cheese Curd Herd"}, {"website": "http://www.1723fbi.net", "name": "Honeywell/A & E Custom Manufacturing/KC STEM Alliance & William Chrisman High & Truman High & Van Horn High", "locality": "Independence", "rookie_year": 2006, "region": "Missouri", "team_number": 1723, "location": "Independence, Missouri, USA", "key": "frc1723", "country_name": "USA", "motto": "1723 Cannot Be Divided", "nickname": "The FBI - FIRST Bots of Independence"}, {"website": "http://www.teamdriven.us", "name": "R&D Leverage/Cerner/Honeywell/Black & Veatch/Fike/Sioux Chief/Kastle Grinding/Hallmark Cards/Sprint/5 Star Embroidery/KC STEM Alliance/Pickett Family & Lee's Summit Sr. High", "locality": "Lee\u2019s Summit", "rookie_year": 2006, "region": "Missouri", "team_number": 1730, "location": "Lee\u2019s Summit, Missouri, USA", "key": "frc1730", "country_name": "USA", "motto": "Driven to Succeed", "nickname": "Team Driven"}, {"website": "http://first1764.liberty.k12.mo.us/", "name": "Liberty Robotics Foundation/Gary Crossley Ford/East Clay Rotary Club/Argus Consulting/KC STEM Alliance/Honeywell/Laird Plastics/Pride Manufacturing & Liberty High & Liberty North High School", "locality": "Liberty", "rookie_year": 2006, "region": "Missouri", "team_number": 1764, "location": "Liberty, Missouri, USA", "key": "frc1764", "country_name": "USA", "motto": "\"The Robot Builds Me\"", "nickname": "Liberty Robotics"}, {"website": "http://www.firstinspires.org/", "name": "Hallmark Cards/KC STEM Alliance/U.S. Engineering & Lincoln College Prep.", "locality": "Kansas City", "rookie_year": 2006, "region": "Missouri", "team_number": 1775, "location": "Kansas City, Missouri, USA", "key": "frc1775", "country_name": "USA", "motto": null, "nickname": "Tigerbytes"}, {"website": "http://1810jaguarrobotics.wix.com/jaguar-robotics-1810", "name": "LeVic Plastics/Black and Veatch/Grundfos/Harold Payne Plastics Lc/Shawnee Cycle/Honeywell International/IBM/Hallmark Corporate Foundation/Structura/KC STEM Alliance/Festo/Dimensional Innovations/Ewing Marion Kauffman Foundation/Weaver's Auto Center/FastSigns/Gorilla Glue & Mill Valley High School", "locality": "Shawnee", "rookie_year": 2006, "region": "Kansas", "team_number": 1810, "location": "Shawnee, Kansas, USA", "key": "frc1810", "country_name": "USA", "motto": null, "nickname": "Jaguar Robotics"}, {"website": "http://www.edinarobotics.com/", "name": "Medtronic / Dow  / LivaNova / Veritas / Graco / PTC / Crosstown Surgery / Elicit LLC / HGA  / Emerson Process Management / The Violet Edge / Stratasys / Edina Education Fund / Cargill Inc. / The Nerdery / 3M Co. / KING / Calvary Lutheran Church / Dunwoody College of Technology / Jerry's do-it Best Hardware / NPC Robotics / Waytek Wire / Wanner Engineering Inc. / Green Machine Boosters & Edina Senior High", "locality": "Edina", "rookie_year": 2006, "region": "Minnesota", "team_number": 1816, "location": "Edina, Minnesota, USA", "key": "frc1816", "country_name": "USA", "motto": "\"Eyes on the future\"", "nickname": "\"The Green Machine\""}, {"website": "www.metrohomeschoolrobotics.org", "name": "C K Enterprises, Inc. / Carpenter's District Council / Associated Women's Care Physicians, P.C. / Fike / Optimist Club of Lake Lotawana / Lock Box Storage / Prestige One Landscaping / Hy-Vee / The Horn Law Firm, PC / Lakewood Chiropractic, PC / goodbidding.org / Power On Technologies, Inc. / KC STEM Alliance / USA800 & Metro Homeschool Robotics, Inc.", "locality": "Lees Summit", "rookie_year": 2006, "region": "Missouri", "team_number": 1825, "location": "Lees Summit, Missouri, USA", "key": "frc1825", "country_name": "USA", "motto": "\"Think Outside the Cube\"", "nickname": "The Cyborgs"}, {"website": "http://www.hhsrobotics.com/", "name": "Sonic Drive-In Harrisonville, MO / Baptist Missionary Transportation Ministry / Honeywell / Eerle M. Jorgensen Company / Families of Team 2164 & Harrisonville High & Cass County 4-H", "locality": "Harrisonville", "rookie_year": 2007, "region": "Missouri", "team_number": 2164, "location": "Harrisonville, Missouri, USA", "key": "frc2164", "country_name": "USA", "motto": "Building a Legacy", "nickname": "2164 The Corps"}, {"website": "http://fightingcalculators.org/", "name": "3M/Boston Scientific/Veritas/Hubbard Broadcasting & Math & Science Academy", "locality": "Woodbury", "rookie_year": 2007, "region": "Minnesota", "team_number": 2175, "location": "Woodbury, Minnesota, USA", "key": "frc2175", "country_name": "USA", "motto": null, "nickname": "The Fighting Calculators"}, {"website": "http://team2220.org", "name": "3M / Thomson Reuters / HBFuller / Ergotron / Xcel Energy / Lancet Software / Gopher Resource / Skyline Exhibits & Eagan Senior High", "locality": "Eagan", "rookie_year": 2007, "region": "Minnesota", "team_number": 2220, "location": "Eagan, Minnesota, USA", "key": "frc2220", "country_name": "USA", "motto": "Blue Twilight - Lighting Up Robotics...Lighting up the world!", "nickname": "Blue Twilight "}, {"website": "http://www.mmr2410.com/", "name": "Blue Valley Educational Foundation/Sprint Corporation/General Motors/Honeywell/Cerner Corporation/Ryerson/NASA & Blue Valley Center For Professional Studies", "locality": "Overland Park", "rookie_year": 2008, "region": "Kansas", "team_number": 2410, "location": "Overland Park, Kansas, USA", "key": "frc2410", "country_name": "USA", "motto": "Do what you love; love what you do. Work hard for others; they'll do that for yo", "nickname": "Blue Valley CAPS Metal Mustang Robotics"}, {"website": "www.team2457.us", "name": "DST Systems Inc / Black & Veatch / Ross Mechanical, Inc / Lockton / American Family Insurance, John Flacke Agency / Lawson United Christian & Presbyterian Church / Bill & Karen Morrow / Goppert Financial Bank / Lawson Review / Coveris / Casey's General Store / N2 Solutions Group / Reece & Nichols Northstar / XI MU BETA  / Platte Clay Electric & Lawson High", "locality": "Lawson", "rookie_year": 2008, "region": "Missouri", "team_number": 2457, "location": "Lawson, Missouri, USA", "key": "frc2457", "country_name": "USA", "motto": "Problems, the pathways to perfection!!!", "nickname": "The Law"}, {"website": "www.team2470.org", "name": "General Dynamics Advanced Information Systems & Jefferson Senior High", "locality": "Bloomington", "rookie_year": 2008, "region": "Minnesota", "team_number": 2470, "location": "Bloomington, Minnesota, USA", "key": "frc2470", "country_name": "USA", "motto": null, "nickname": "Team BJORG"}, {"website": "http://team2502.com/", "name": "MTS Systems Corporation/Continental Engineering &  Manufacturing (CEM) & EDEN PRAIRIE SENIOR HIGH", "locality": "Eden Prairie", "rookie_year": 2008, "region": "Minnesota", "team_number": 2502, "location": "Eden Prairie, Minnesota, USA", "key": "frc2502", "country_name": "USA", "motto": "Make work!", "nickname": "Talon Robotics"}, {"website": "http://www.daredevils2512.org", "name": "Archer Racing / Tricel Honeycomb / Stewart Taylor Printing / Johnson Strom Properties / Edge: Water Park and Hotel / AAR Aircraft Services Duluth / Saturn Systems / Lake Superior Consulting / Kiwanis of Friendly Duluth / HTK Marketing Communications / Minnesota Power / F.I.Salter / Krech Ojard & Associates Inc. / National Bank of Commerce & East Senior High", "locality": "Duluth", "rookie_year": 2008, "region": "Minnesota", "team_number": 2512, "location": "Duluth, Minnesota, USA", "key": "frc2512", "country_name": "USA", "motto": "I can do that", "nickname": "Duluth East Daredevils"}, {"website": "http://www.crimsonrobotics.com/", "name": "TURCK Inc./Boston Scientific/Osseo Area Schools/Michael Matheson of Financial Dimensions Group/Yellow Tree Theatre/Maple Grove Lions Club/Natur-Bag/Art and Frame World/Country Chevrolet/Hennepin Theater Trust/Three Squares Restaraunt/Solos Pizza Cafe/Chipotle/Tennant/Legato Industries Inc & Maple Grove Senior High", "locality": "Maple Grove", "rookie_year": 2008, "region": "Minnesota", "team_number": 2526, "location": "Maple Grove, Minnesota, USA", "key": "frc2526", "country_name": "USA", "motto": null, "nickname": "Crimson Robotics"}, {"website": "http://www.firstinspires.org/", "name": "Lake Region Medical/Emerson Process Management & Chaska High School", "locality": "Chaska", "rookie_year": 2008, "region": "Minnesota", "team_number": 2531, "location": "Chaska, Minnesota, USA", "key": "frc2531", "country_name": "USA", "motto": "Soar Hawks", "nickname": "RoboHawks"}, {"website": "http://www.plaidpillagers.com/", "name": "Superior Industries/Medtronic/Morris Education Foundation/Society of Women Engineers & Morris Area Secondary", "locality": "Morris", "rookie_year": 2008, "region": "Minnesota", "team_number": 2538, "location": "Morris, Minnesota, USA", "key": "frc2538", "country_name": "USA", "motto": "in Pursuit of Leadership And Innovative Design", "nickname": "The Plaid Pillagers"}, {"website": "http://www.ism-werobot.com/", "name": "Entrust Datacard  & THE INTERNATIONAL SCHOOL OF MINNESOTA & EAGLE RIDGE ACADEMY CHARTER SCHOOL", "locality": "Eden Prairie", "rookie_year": 2009, "region": "Minnesota", "team_number": 2705, "location": "Eden Prairie, Minnesota, USA", "key": "frc2705", "country_name": "USA", "motto": "Humans and Robots, Hand in Hand", "nickname": "WE ROBOT"}, {"website": "http://www.team2883.com/", "name": "Marvin Windows & Warroad High School", "locality": "Warroad", "rookie_year": 2009, "region": "Minnesota", "team_number": 2883, "location": "Warroad, Minnesota, USA", "key": "frc2883", "country_name": "USA", "motto": "Get er done", "nickname": "F.R.E.D (Fighting Rednecks Engineering and Design)"}, {"website": "http://www.nordicstorm.org/", "name": "Medtronic/Neighborhood Group/Gustavus Adolphus College/Analog Devices Inc./DLC, Inc", "locality": "Saint Peter", "rookie_year": 2009, "region": "Minnesota", "team_number": 3018, "location": "Saint Peter, Minnesota, USA", "key": "frc3018", "country_name": "USA", "motto": null, "nickname": "Nordic Storm"}, {"website": "http://www.firstinspires.org/", "name": "Sil-Pro & Delano Senior High", "locality": "Delano", "rookie_year": 2009, "region": "Minnesota", "team_number": 3026, "location": "Delano, Minnesota, USA", "key": "frc3026", "country_name": "USA", "motto": null, "nickname": "Orange Crush"}, {"website": "http://genevarobovikes.com", "name": "The Label Printers / MayTech / Geneva Ale House & GENEVA COMMUNITY HIGH SCHOOL", "locality": "Geneva", "rookie_year": 2009, "region": "Illinois", "team_number": 3067, "location": "Geneva, Illinois, USA", "key": "frc3067", "country_name": "USA", "motto": null, "nickname": "Robovikes"}, {"website": "kennedyrobotics.com", "name": "Microsoft / Thermo King / Clariant International / Wair Products / Bloomington Heritage Days / Education Foundation of Bloomington / Peterson Family / Hart Family / Lindemann Family / Rauenhorst Family / Sjostrand Family / Dalsin Industries - Memphis Grills & Kennedy Senior High", "locality": "Bloomington", "rookie_year": 2009, "region": "Minnesota", "team_number": 3081, "location": "Bloomington, Minnesota, USA", "key": "frc3081", "country_name": "USA", "motto": null, "nickname": "RoboEagles"}, {"website": "http://www.error3130.org", "name": "3M Company/MoTech & East Ridge High School", "locality": "Woodbury", "rookie_year": 2010, "region": "Minnesota", "team_number": 3130, "location": "Woodbury, Minnesota, USA", "key": "frc3130", "country_name": "USA", "motto": "Take Action, Create Results, Shower Later", "nickname": "The East Ridge Robotic Ominous RaptorS - the ERRORS"}, {"website": "http://www.blazerobotics.org", "name": "CapEx Outsource/Best Buy/UTC Aerospace/Bolton & Menk, Inc./Fuller Sales/ASM Logic/Northern Tool + Equipment/Burnsville Lions Club/RedEye by Stratasys & Burnsville Senior High", "locality": "Burnsville", "rookie_year": 2010, "region": "Minnesota", "team_number": 3184, "location": "Burnsville, Minnesota, USA", "key": "frc3184", "country_name": "USA", "motto": "Setting FIRST ablaze", "nickname": "Blaze Robotics"}, {"website": "http://www.laser3284.org", "name": "The Boeing Company / Speedline Technologies / Camdenton R-III Afterschool Services / Nihon Superior / STEMfinity / Metaltech / 4H / Community Foundation of the Lake / Pirate's Point & Camdenton High", "locality": "Camdenton", "rookie_year": 2010, "region": "Missouri", "team_number": 3284, "location": "Camdenton, Missouri, USA", "key": "frc3284", "country_name": "USA", "motto": "\"There's no CRYING in robotics.....", "nickname": "Camdenton 4H LASER Team"}, {"website": "http://www.firstinspires.org/", "name": "Medtronics/Pizza Ranch-Pipestone & Pipestone Senior High", "locality": "Pipestone", "rookie_year": 2010, "region": "Minnesota", "team_number": 3298, "location": "Pipestone, Minnesota, USA", "key": "frc3298", "country_name": "USA", "motto": null, "nickname": "ArrowBots"}, {"website": "http://breckstampede.wordpress.com", "name": "Breck School & Breck School", "locality": "Golden Valley", "rookie_year": 2011, "region": "Minnesota", "team_number": 3630, "location": "Golden Valley, Minnesota, USA", "key": "frc3630", "country_name": "USA", "motto": "Horsepower!", "nickname": "The Stampede"}, {"website": "www.team3633.com", "name": "Innovance, Inc./Edwards Manufacturing/Medtronics & Albert Lea Senior High", "locality": "Albert Lea", "rookie_year": 2011, "region": "Minnesota", "team_number": 3633, "location": "Albert Lea, Minnesota, USA", "key": "frc3633", "country_name": "USA", "motto": null, "nickname": "Catalyst"}, {"website": "www.frc3883.com", "name": "3 M/Northern Tier Energy/Baxter International & Park Senior High", "locality": "Cottage Grove", "rookie_year": 2011, "region": "Minnesota", "team_number": 3883, "location": "Cottage Grove, Minnesota, USA", "key": "frc3883", "country_name": "USA", "motto": "Keep it Super Simple", "nickname": "Data Bits"}, {"website": "www.teamneutrino.org", "name": "John Deere/Danfoss/Quality Manufacturing Corporation/CIT Signature Transportation/Monsanto Fund/3M/Iowa State University/City of Ames Electric Department & Story County 4H", "locality": "Ames", "rookie_year": 2012, "region": "Iowa", "team_number": 3928, "location": "Ames, Iowa, USA", "key": "frc3928", "country_name": "USA", "motto": "Aim Higher", "nickname": "Team Neutrino"}, {"website": "http://www.firstinspires.org/", "name": "Cirrus Aircraft / OPTUM UnitedHealth / MTS Systems / PTC / Krech Ojard & Associates / Best Buy & Duluth Marshall School", "locality": "Duluth", "rookie_year": 2012, "region": "Minnesota", "team_number": 4230, "location": "Duluth, Minnesota, USA", "key": "frc4230", "country_name": "USA", "motto": null, "nickname": "TopperBots "}, {"website": "http://www.rambunction.net", "name": "Monsanto/Ladue School District/MILPAWS & Ladue Horton Watkins High", "locality": "St. Louis", "rookie_year": 2012, "region": "Missouri", "team_number": 4330, "location": "St. Louis, Missouri, USA", "key": "frc4330", "country_name": "USA", "motto": null, "nickname": "Rambunction"}, {"website": "www.minutebots.org", "name": "3M & Central Senior High", "locality": "Saint Paul", "rookie_year": 2013, "region": "Minnesota", "team_number": 4536, "location": "Saint Paul, Minnesota, USA", "key": "frc4536", "country_name": "USA", "motto": null, "nickname": "MinuteBots"}, {"website": "www.team4646.org/", "name": "John Deere/Neighborhood Group/Microsoft/Des Moines Area Community College (DMACC)/PTC/Quality Manufacturing Corporation/Scheufler Farms/Baldor ABB/Iowa STEAM Innovation Zone/MPS Engineers", "locality": "Des Moines", "rookie_year": 2013, "region": "Iowa", "team_number": 4646, "location": "Des Moines, Iowa, USA", "key": "frc4646", "country_name": "USA", "motto": null, "nickname": "Team ASAP "}, {"website": "http://www.firstinspires.org/", "name": "Boston Scientific & St. Charles Secondary", "locality": "St. Charles", "rookie_year": 2013, "region": "Minnesota", "team_number": 4762, "location": "St. Charles, Minnesota, USA", "key": "frc4762", "country_name": "USA", "motto": null, "nickname": "Robo-Saints"}, {"website": "wfrobotics.org", "name": "John Deere/Microsoft/Weisgram/North Dakota Space Grant Consortium/Scheels/Otter Tail Power/ND CTE Dept/Packer Backers/Molex/Diamond J Customs/JDP Automation/PTC/Butler/Cook Endodontics/Brenco Cleaning Equimpent/Midwest Coating Inc/BTD Custom Metal Work/Bell State Bank and Trust/Houston Engineering/SAE North Central Section/Ostroms Ace Hardware/Ostroms Ace Hardware/Fargo 3D Printing/Gadget Garage/AIC Maintenance/Trail King Industries/Sanford Health/FM Engineers Club/Agassiz Chemical & Equipment/McNeilus Steel/FM Home and Patio/High Point Networks/Fargo Automation & West Fargo High School", "locality": "West Fargo", "rookie_year": 2013, "region": "North Dakota", "team_number": 4818, "location": "West Fargo, North Dakota, USA", "key": "frc4818", "country_name": "USA", "motto": null, "nickname": "The Herd"}, {"website": "https://5041cybearrobotics.wordpress.com/", "name": "Monsanto / Innovative Software Engineering / American Family Insurance Agent Melinda Wieland / Aero Rental / Liberty Communications / Ed and Bev Spencer / Mike and Amy Colbert / HIlls Bank & West Branch High School", "locality": "West Branch", "rookie_year": 2014, "region": "Iowa", "team_number": 5041, "location": "West Branch, Iowa, USA", "key": "frc5041", "country_name": "USA", "motto": "Designing Robots, Building Leaders", "nickname": "CyBears"}, {"website": "www.5172gators.org", "name": "Greenbush-Middle River Senior High", "locality": "Greenbush Middle River", "rookie_year": 2014, "region": "Minnesota", "team_number": 5172, "location": "Greenbush Middle River, Minnesota, USA", "key": "frc5172", "country_name": "USA", "motto": null, "nickname": "Gators"}, {"website": "http://www.525swartdogs.org", "name": "John Deere/PTC/R.J. McElroy Trust/Rockwell Collins/Denso International America, Inc./DISTek Integration, Inc/Viking Pump, a Unit of IDEX Corporation/Hawkeye Tool and Die/Partners in Obstetrics and Gynecology/University of Northern Iowa/Iowa State University College of Engineering & Cedar Falls High School", "locality": "Cedar Falls", "rookie_year": 2001, "region": "Iowa", "team_number": 525, "location": "Cedar Falls, Iowa, USA", "key": "frc525", "country_name": "USA", "motto": "Students Working Around Robotic Technology", "nickname": "Swartdogs"}, {"website": "http://www.firstinspires.org/", "name": "Chart Industries/New Prague Area Education Foundation/Rame Aircraft Maintenance/Safety Signs MN/Scott Equipment Company/TE Connectivity /RTI/MVEC & New Prague Senior High", "locality": "New Prague", "rookie_year": 2014, "region": "Minnesota", "team_number": 5275, "location": "New Prague, Minnesota, USA", "key": "frc5275", "country_name": "USA", "motto": null, "nickname": "T.I.M.E.-Bots"}, {"website": "http://www.firstinspires.org/", "name": " Shenzhen DADALELE Culture Communication Co., LTD  & Chongqing NO.37 Middle School & China Urban Youth Robotic Alliance", "locality": "CHONGQING", "rookie_year": 2014, "region": "Chongqing", "team_number": 5306, "location": "CHONGQING, Chongqing, China", "key": "frc5306", "country_name": "China", "motto": null, "nickname": "R2"}, {"website": "www.teamjy.com", "name": "Wuhan Foreign Languages School & Wuhan Foreign Languages School", "locality": "Wuhan", "rookie_year": 2014, "region": "Hubei", "team_number": 5308, "location": "Wuhan, Hubei, China", "key": "frc5308", "country_name": "China", "motto": "Even Better", "nickname": "Wuhan Yangtze "}, {"website": "https://sites.google.com/a/wacohi.net/panther-engineering/", "name": "Caterpillar Inc./NASA & Washington Comm High School", "locality": "Washington", "rookie_year": 2015, "region": "Illinois", "team_number": 5442, "location": "Washington, Illinois, USA", "key": "frc5442", "country_name": "USA", "motto": "Mind Over Metal", "nickname": "Mechanical Monarchy"}, {"website": "http://www.firstinspires.org/", "name": "Spirit Lake High School", "locality": "Spirit Lake", "rookie_year": 2015, "region": "Iowa", "team_number": 5576, "location": "Spirit Lake, Iowa, USA", "key": "frc5576", "country_name": "USA", "motto": null, "nickname": "Team Terminator"}, {"website": "http://www.firstinspires.org/", "name": "North Senior High", "locality": "Minneapolis", "rookie_year": 2015, "region": "Minnesota", "team_number": 5637, "location": "Minneapolis, Minnesota, USA", "key": "frc5637", "country_name": "USA", "motto": null, "nickname": "North High Polar Vortex"}, {"website": "http://www.firstinspires.org/", "name": "Shenzhen School united  &  Shenzhen DADALELE Culture Communication Co., LTD ", "locality": "Shenzhen", "rookie_year": 2016, "region": "Guangdong", "team_number": 5823, "location": "Shenzhen, Guangdong, China", "key": "frc5823", "country_name": "China", "motto": null, "nickname": "Shenzhen  School  united"}, {"website": "http://www.firstinspires.org/", "name": "John Deere & East High School", "locality": "Waterloo", "rookie_year": 2016, "region": "Iowa", "team_number": 5837, "location": "Waterloo, Iowa, USA", "key": "frc5837", "country_name": "USA", "motto": null, "nickname": "Waterloo Robotics"}, {"website": "http://www.firstinspires.org/", "name": "Bennington Secondary School", "locality": "Bennington", "rookie_year": 2016, "region": "Nebraska", "team_number": 5906, "location": "Bennington, Nebraska, USA", "key": "frc5906", "country_name": "USA", "motto": null, "nickname": "Titanium Badgers"}, {"website": "http://www.firstinspires.org/", "name": "", "locality": "None", "rookie_year": 2016, "region": "Iowa", "team_number": 5935, "location": "None, Iowa, USA", "key": "frc5935", "country_name": "USA", "motto": null, "nickname": ""}, {"website": "http://www.firstinspires.org/", "name": "Dike-New Hartford High School", "locality": "Dike", "rookie_year": 2016, "region": "Iowa", "team_number": 6164, "location": "Dike, Iowa, USA", "key": "frc6164", "country_name": "USA", "motto": null, "nickname": "DNH Robotics"}, {"website": "http://www.qcelite.com/", "name": "Alcoa / John Deere / SME & Sherrard High School & Rock Island High School & Rivermont Collegiate & Moline Sr High School & Pleasant Valley High School", "locality": "Quad Cities", "rookie_year": 2001, "region": "Iowa", "team_number": 648, "location": "Quad Cities, Iowa, USA", "key": "frc648", "country_name": "USA", "motto": "Dream, Believe, Achieve", "nickname": "QC ELITE"}, {"website": "smnorthrobotics.com", "name": "KC STEM Alliance/Clarcor Industrial Air/DeVry University/Garmin/Honeywell/Shawnee Mission North Booster Club/Lanmarx Graphix INC./Highwire Promotional Specialities/Homer Works/Shawnee Mission North PTSA/McDonald's Corporation/Cowtown Computer Congress of Kansas City/Ewing Marion Kaufmann Foundation/DST/Google Fiber/Black & Veatch/Burns & McDonnell/Cerner/US Engineering & SHAWNEE MISSION NORTH HIGH", "locality": "Overland Park", "rookie_year": 2002, "region": "Kansas", "team_number": 937, "location": "Overland Park, Kansas, USA", "key": "frc937", "country_name": "USA", "motto": "Dream, Build, Succeed!", "nickname": "Robo Tribe"}, {"website": "http://www.lmrobotics.com", "name": "Rockwell Collins/Linn-Mar Booster Club/EHA/Iowa Fluid Power/Lindahl Marine Contractors, Inc./Linn-Mar Foundation/Conveyor Engineering/Bentley Manufacturing/Master Tool Mfg/D.A.D. Mfg Inc/Cargill/Verizon/Intermec/Linn County REC/CIPCO/McElroy Trust & Linn-Mar High School", "locality": "Marion", "rookie_year": 2002, "region": "Iowa", "team_number": 967, "location": "Marion, Iowa, USA", "key": "frc967", "country_name": "USA", "motto": null, "nickname": "Iron Lions"}]