[{"website": "Coming Soon", "name": "Florence-Darlington Technical College & Academy for Careers and Technology", "locality": "Marion", "rookie_year": 2003, "region": "South Carolina", "team_number": 1051, "location": "Marion, South Carolina, USA", "key": "frc1051", "country_name": "USA", "motto": null, "nickname": "Technical Terminators"}, {"website": "http://www.aikencountyrobotics.org", "name": "Savannah River Nuclear Solutions/Aiken County Public Schools & Aiken High", "locality": "Aiken", "rookie_year": 2003, "region": "South Carolina", "team_number": 1102, "location": "Aiken, South Carolina, USA", "key": "frc1102", "country_name": "USA", "motto": "Together with FIRST, we are M'Aiken Magic happen", "nickname": "Aiken County Robotics"}, {"website": "http://www.firstinspires.org/", "name": "NASA Glenn Research Center/Cuyahoga Community College/GrafTech Corporation/Rockwell Automation & Youth Technology Academy", "locality": "Cleveland", "rookie_year": 1995, "region": "Ohio", "team_number": 120, "location": "Cleveland, Ohio, USA", "key": "frc120", "country_name": "USA", "motto": "All for ONE--Cleveland's Team!", "nickname": "Cleveland's Team"}, {"website": "http:///www.FRCTeam1287.com", "name": "Santee Cooper/Horry County Schools/Grand Strand Technology Council & Academy for Arts/Science/Technology", "locality": "Myrtle Beach", "rookie_year": 2004, "region": "South Carolina", "team_number": 1287, "location": "Myrtle Beach, South Carolina, USA", "key": "frc1287", "country_name": "USA", "motto": "Best work, First time, On time", "nickname": "Aluminum Assault"}, {"website": "http://www.rockwallrobotics.com", "name": "Special Products and Manufacturing/The PTR Group/Park Place/Innovation First International, Inc/Texas Workforce Commission/Cyphre, Inc. & Rockwall H S", "locality": "Rockwall", "rookie_year": 2004, "region": "Texas", "team_number": 1296, "location": "Rockwall, Texas, USA", "key": "frc1296", "country_name": "USA", "motto": "It's a cat(apult).", "nickname": "Full Metal Jackets"}, {"website": "http:///www.FRC1369Minotaur.com", "name": "NASA / Verizon / Suncoast Federal Credit Union / PRL Technologies, Inc. / Bay Area Manufacturers Association / Women in Defense / Squire Patton Boggs (US) LLP / Tampa Bay Association of Environmental Professionals / Winder Insurance Group, LLC / Tierra, Inc. / Southern Manufacturing Technologies / ITW / Cardio Command / Discovery World Academy / On Wings of Gold / CFS Metal Products / EngineArmor Performance Coating / Middleton Magnet STEM Booster Club & Middleton High School", "locality": "Tampa", "rookie_year": 2004, "region": "Florida", "team_number": 1369, "location": "Tampa, Florida, USA", "key": "frc1369", "country_name": "USA", "motto": "Where Engineers are Born!", "nickname": "Minotaur"}, {"website": "http://tinyurl.com/team1398", "name": "Richland School District One/It-oLogy/American Association of Blacks in Energy/USC College of Engineering & W.J. Keenan High", "locality": "Columbia", "rookie_year": 2004, "region": "South Carolina", "team_number": 1398, "location": "Columbia, South Carolina, USA", "key": "frc1398", "country_name": "USA", "motto": "We build together and achieve together.  It's just a REAL thing.", "nickname": "Robo-Raiders"}, {"website": "http://1539cloverrobotics.webs.com", "name": "Clover School District / Town Of Clover / CM Steel / Mergent / CHIRON America / Huffman Corporation / Duke Energy / Jameson / Nationwide Insurance / Pizza Man / Okuma / Koops / Delta Mold / UTC Aerospace Systems / Meritor / Food Lion & Clover High", "locality": "Clover", "rookie_year": 2005, "region": "South Carolina", "team_number": 1539, "location": "Clover, South Carolina, USA", "key": "frc1539", "country_name": "USA", "motto": "If at first you don't succeed, call it version 1.0", "nickname": "Clover Robotics"}, {"website": "http://www.kcroboticsteam.org/", "name": "Kershaw County School District/Duke Energy & Lugoff-Elgin High & Applied Technology Education Center & Camden Military Academy & Camden Middle & Lugoff-Elgin Middle & Camden High", "locality": "Lugoff", "rookie_year": 2005, "region": "South Carolina", "team_number": 1553, "location": "Lugoff, South Carolina, USA", "key": "frc1553", "country_name": "USA", "motto": "Changing the Way We Build the Future", "nickname": "KC Robotics Team"}, {"website": "http://www.frc1758.org", "name": "Florence School District One/GE Volunteers/Toledo Carolina Inc/Otis Elevator Company & Florence Career Center", "locality": "Florence", "rookie_year": 2006, "region": "South Carolina", "team_number": 1758, "location": "Florence, South Carolina, USA", "key": "frc1758", "country_name": "USA", "motto": "Metal and Magic", "nickname": "Technomancers"}, {"website": "http://www.179swampthing.org", "name": "UTC / EDF / Propp Family Foundation / Lockheed Martin / NASA / FP&L / Florida Turbine Technologies / Aerojet Rocketdyne / Society of Women Engineers & Inlet Grove Community High School", "locality": "Riviera Beach", "rookie_year": 1998, "region": "Florida", "team_number": 179, "location": "Riviera Beach, Florida, USA", "key": "frc179", "country_name": "USA", "motto": null, "nickname": "Children of the Swamp"}, {"website": "http:///www.beachbotics.com", "name": "Beaufort County School District / Palmetto Electric Co-op / Foundation for Educational Excellence / Hilton Head Concours de Elegance / CliqBit Inc. / Todd Rhine Planning & Hilton Head Island High", "locality": "Hilton Head Island", "rookie_year": 2006, "region": "South Carolina", "team_number": 1876, "location": "Hilton Head Island, South Carolina, USA", "key": "frc1876", "country_name": "USA", "motto": "\"Lead, follow or get out of the way!\"", "nickname": "Beachbotics"}, {"website": "http://www.sehsrobotics.com/", "name": "Parker Hannifin/Advanced Polymer Coatings Ltd./JBC Technologies/American Tank and Fabricating Co/Pointe Blank Solutions/Alphaport & St Edward High School", "locality": "Lakewood", "rookie_year": 2007, "region": "Ohio", "team_number": 2172, "location": "Lakewood, Ohio, USA", "key": "frc2172", "country_name": "USA", "motto": null, "nickname": "Street Legal"}, {"website": "http://ata.horrycountyschools.net/for_students/robotics_team/", "name": "Santee Cooper/Horry County School District & Academy for Technology and Academics", "locality": "Conway", "rookie_year": 2007, "region": "South Carolina", "team_number": 2187, "location": "Conway, South Carolina, USA", "key": "frc2187", "country_name": "USA", "motto": "We do more with less", "nickname": "Team Volt"}, {"website": "http://www.mmrambotics.com", "name": "Arcelor Mittal Dofasco Hamilton / Almex Group / Halton District School Board / L3 Westcam & M.M. Robinson High School", "locality": "Burlington", "rookie_year": 2007, "region": "Ontario", "team_number": 2200, "location": "Burlington, Ontario, Canada", "key": "frc2200", "country_name": "Canada", "motto": null, "nickname": "MMRambotics"}, {"website": "http://www.mavericks2252.net", "name": "NASA Plum Brook Station/Sierra Lobo, Inc./Bettcher Industries/Riley Contracting/Schlessman Seed Co. & Ehove Career Center", "locality": "Milan", "rookie_year": 2007, "region": "Ohio", "team_number": 2252, "location": "Milan, Ohio, USA", "key": "frc2252", "country_name": "USA", "motto": "Engineering Was Never This Wild!", "nickname": "The Mavericks"}, {"website": "http://team237.com/", "name": "Siemon Company / United Technologies Corporation / TUV Rheinland / Trumpf / MacDermid Performance Solutions & Watertown High School", "locality": "Watertown", "rookie_year": 1999, "region": "Connecticut", "team_number": 237, "location": "Watertown, Connecticut, USA", "key": "frc237", "country_name": "USA", "motto": " \"Black is Back\"", "nickname": "Black Magic Robotics"}, {"website": "http:///www.bchfirstrobotics.weebly.com", "name": "Eaton/BMP Metals/Pathways/Halton District School board/Hatch & Burlington Central High School", "locality": "Burlington", "rookie_year": 2008, "region": "Ontario", "team_number": 2386, "location": "Burlington, Ontario, Canada", "key": "frc2386", "country_name": "Canada", "motto": null, "nickname": "Trojans"}, {"website": "http://www.knoxvillecatholic.com/parents-students/robotics-team/", "name": "ORNL / UT-Battelle / MDF / Denso / Dow & Knoxville Catholic High School", "locality": "Knoxville", "rookie_year": 2008, "region": "Tennessee", "team_number": 2393, "location": "Knoxville, Tennessee, USA", "key": "frc2393", "country_name": "USA", "motto": "The Luck of the Irish", "nickname": "Robotichauns"}, {"website": "http://www.team2556.com", "name": "Doolittle Institute / National Defense Education Program / Niceville High School Boosters / Ft Walton Machining & Niceville Senior High School", "locality": "Niceville", "rookie_year": 2008, "region": "Florida", "team_number": 2556, "location": "Niceville, Florida, USA", "key": "frc2556", "country_name": "USA", "motto": "Better is the enemy of good enough", "nickname": "RadioActive Roaches"}, {"website": "http://marsfirst.org", "name": "NASA Robotics Alliance/United Way/West Virginia University/Mon County Board of Education/Aurora Flight Sciences/WV Space Grant Consortium/Mylan Pharmaceuticals & MARS", "locality": "Morgantown", "rookie_year": 2008, "region": "West Virginia", "team_number": 2614, "location": "Morgantown, West Virginia, USA", "key": "frc2614", "country_name": "USA", "motto": "We came to be inspired, we stayed because we were, we will become the inspiratio", "nickname": "MARS"}, {"website": "http://bluedevilmechanics.weebly.com/", "name": "Dreher High School/Richland County School District One & Dreher High", "locality": "Columbia", "rookie_year": 2009, "region": "South Carolina", "team_number": 2815, "location": "Columbia, South Carolina, USA", "key": "frc2815", "country_name": "USA", "motto": null, "nickname": "Blue Devil Mechanics"}, {"website": "http://first283.wix.com/first283", "name": "Hamilton Automation / TWL Construction / Greenville County Schools / NASA / Lawrence Fabrication / Dixie Rubber / GE / Instron / PPG Inc / SOLIDWorks / Palmetto Graphics & Wade Hampton High & Greenville Senior High Academy & J. L. Mann High Academy & Southside High & Greenville Technical Charter High & Riverside High", "locality": "Greenville", "rookie_year": 1999, "region": "South Carolina", "team_number": 283, "location": "Greenville, South Carolina, USA", "key": "frc283", "country_name": "USA", "motto": "Train, Lead, Mobilize", "nickname": "The Generals"}, {"website": "http:///www.first342.org", "name": "BOSCH/Robert Bosch, LLC/Dorchester County School District/SPAWAR/Dorchester County Council & Fort Dorchester High", "locality": "North Charleston", "rookie_year": 2000, "region": "South Carolina", "team_number": 342, "location": "North Charleston, South Carolina, USA", "key": "frc342", "country_name": "USA", "motto": "Take the message further", "nickname": "Burning Magnetos"}, {"website": "http://www.metalinmotion.com/", "name": "Itron, Inc./Duke Energy/Schneider Electric Company/NASA & School District of Oconee County", "locality": "Seneca", "rookie_year": 2000, "region": "South Carolina", "team_number": 343, "location": "Seneca, South Carolina, USA", "key": "frc343", "country_name": "USA", "motto": "Tempus Fugit", "nickname": "Metal-In-Motion"}, {"website": "http://www.team3489.org/", "name": "Robert Bosch/The Boeing Company/National Defense Education Program/SPAWAR/Dorchester County Council & Ashley Ridge High & Summerville High", "locality": "North Charleston", "rookie_year": 2011, "region": "South Carolina", "team_number": 3489, "location": "North Charleston, South Carolina, USA", "key": "frc3489", "country_name": "USA", "motto": "It's too late to evacuate, it's Category 5!", "nickname": "Category 5"}, {"website": "http://www.firstinspires.org/", "name": "Robert Bosch, LLC / The Boeing Company / Bp America  / Coast to Coast Construction / Berkeley County Schools / SPAWAR & Cane Bay High", "locality": "Summerville", "rookie_year": 2011, "region": "South Carolina", "team_number": 3490, "location": "Summerville, South Carolina, USA", "key": "frc3490", "country_name": "USA", "motto": null, "nickname": "Viper Drive"}, {"website": "http:///rohawktics.org", "name": "ORNL / UT Battelle / DOE  MDF  Advanced Manufacturing Office / Local Motors / Bechtel / DowAksa / Knox County Schools / Naoko Blue & Associates / Boeing / Consolidated Nuclear Security / Ingenutec / Magnum Venus Products / Techmeres Engineered Solutions / TVA / 3DSystems / Phillips & Jordan / Soccer Taco / Sharp Outdoor Media, LLC / Composite Envisions & Hardin Valley Academy", "locality": "Knoxville", "rookie_year": 2011, "region": "Tennessee", "team_number": 3824, "location": "Knoxville, Tennessee, USA", "key": "frc3824", "country_name": "USA", "motto": "Vision. Vigilance. Victory.", "nickname": "HVA RoHAWKtics"}, {"website": "http:///diamondhornetsrobotics.weebly.com", "name": "South Sumter Seafood/CATE/The Blencowe Group Inc & Lower Richland High", "locality": "Hopkins", "rookie_year": 2012, "region": "South Carolina", "team_number": 3976, "location": "Hopkins, South Carolina, USA", "key": "frc3976", "country_name": "USA", "motto": "Conceive \u2013 Believe \u2013 Achieve\u201d", "nickname": "Electric Hornets"}, {"website": "http://www.clockworkmania.orlandosciencerobotics.org", "name": "Lockheed Martin / Best Buy / NASA / Mills & Nebraska Door & Trim / Walt Disney World Co Design & Engineering / Atkins Global / Florida Fluid Power Society / VEI Systems / Rockwell Collins / Boca Bearings & Orlando Science Middle High Charter", "locality": "Orlando", "rookie_year": 2012, "region": "Florida", "team_number": 4013, "location": "Orlando, Florida, USA", "key": "frc4013", "country_name": "USA", "motto": null, "nickname": "Clockwork Mania"}, {"website": "Coming Soon", "name": "Custom Machine & Design Inc/Society of Women Engineers & Carolina Forest High", "locality": "Myrtle Beach", "rookie_year": 2012, "region": "South Carolina", "team_number": 4073, "location": "Myrtle Beach, South Carolina, USA", "key": "frc4073", "country_name": "USA", "motto": "Go Panthers", "nickname": "Robo Kats"}, {"website": "http://www.facebook.com/mobileprotection#!/pages/RoboSharks/275392299178474?fref=ts", "name": "Tick Tock Time/Santee Cooper & St. James High", "locality": "Murrells Inlet", "rookie_year": 2012, "region": "South Carolina", "team_number": 4074, "location": "Murrells Inlet, South Carolina, USA", "key": "frc4074", "country_name": "USA", "motto": "Beware of... Well.. Just Beware", "nickname": "Shark Bytes"}, {"website": "Coming Soon", "name": "NASA/MetGlas/Lowes/Home Depot/Horry County Schools & Conway High & Conway High", "locality": "Conway", "rookie_year": 2012, "region": "South Carolina", "team_number": 4075, "location": "Conway, South Carolina, USA", "key": "frc4075", "country_name": "USA", "motto": "Go Tigers", "nickname": "Robo Tigers"}, {"website": "http://ironwolverines4083.weebly.com/", "name": "Boeing / Robert Bosch / Showa Denko / The School of Advancement / Dorchester County / Dorchester District 4 & Woodland High & Neighborhood Group", "locality": "Dorchester", "rookie_year": 2012, "region": "South Carolina", "team_number": 4083, "location": "Dorchester, South Carolina, USA", "key": "frc4083", "country_name": "USA", "motto": "Eat. Sleep. Create. Repeat...", "nickname": "The Iron Wolverines"}, {"website": "http://www.thsfirst.com/", "name": "ETSU/Bristol Tennessee City Schools/Eastman/Strongwell/Bristol Compressors/jcpenney/Lowe's/Energy Systems Group/ASME Holston  Section & Tennessee High School", "locality": "Bristol", "rookie_year": 2012, "region": "Tennessee", "team_number": 4098, "location": "Bristol, Tennessee, USA", "key": "frc4098", "country_name": "USA", "motto": "Viking Pride", "nickname": "Viking Robotics Team"}, {"website": "http:///team4243.com", "name": "The Boeing Company & R. B. Stall High", "locality": "North Charleston", "rookie_year": 2012, "region": "South Carolina", "team_number": 4243, "location": "North Charleston, South Carolina, USA", "key": "frc4243", "country_name": "USA", "motto": "Bolts are always tight", "nickname": "STAR Warriors"}, {"website": "http://www.firstinspires.org/", "name": "Bechtel / UT Battelle & Oak Ridge National Labs / Tennessee Tool and Engineering / Leidos / Centrus / CNS, Consolidated Nucear Security LLC / Oak Ridge Public Schools Education Foundation / ARMEC / Baird & Wilson Sheet Metal Fabricators / Technical Machining / RT Coating / Oak Ridge City Schools / ORHS Engineering  & Innovation Academy / Tennessee Valley Authority / Kendall Electric / Restoration Services / Fox Bros. ACE Hardware / Dr. Russ Langdon / Fleenor Security / Fastenal / Atomic City Computers / Nanomechanics, Inc. / Oak Ridge Tool and Engineering / First United Methodist Church / Rotary Club of Oak Ridge Sunset / Axis Fabrication & Machine / Bob Eby & Oak Ridge High School", "locality": "Oak Ridge", "rookie_year": 2012, "region": "Tennessee", "team_number": 4265, "location": "Oak Ridge, Tennessee, USA", "key": "frc4265", "country_name": "USA", "motto": "Glowing with Gracious Professionalism-Passionately Pursuing Perfection...", "nickname": "Secret City Wildbots"}, {"website": "Coming Soon", "name": "HCS CATE Program/Horry County Council & Socastee High", "locality": "Myrtle Beach", "rookie_year": 2012, "region": "South Carolina", "team_number": 4267, "location": "Myrtle Beach, South Carolina, USA", "key": "frc4267", "country_name": "USA", "motto": null, "nickname": "Brave Bots"}, {"website": "http://www.firstinspires.org/", "name": "BOSCH/Bosch Rexroth Corporation/STUEKEN Precision Metal/Michelin/GE/Laurens County Water & Sewer Commission/Laurens Commissioner of Public Works/Walmart - Laurens/Piedmont Technical College & Laurens District 55 High", "locality": "Laurens", "rookie_year": 2013, "region": "South Carolina", "team_number": 4451, "location": "Laurens, South Carolina, USA", "key": "frc4451", "country_name": "USA", "motto": "Life is Good in the Garage!", "nickname": "ROBOTZ Garage"}, {"website": "http://bcrobotics.us", "name": "DENSO/Maryville City Schools/Alcoa City Schools Education Foundation/Maryville City Schools Foundation/Oak Ridge National Laboratories/Remotec/ALCOA/IEEE & Maryville High School", "locality": "Maryville", "rookie_year": 2013, "region": "Tennessee", "team_number": 4504, "location": "Maryville, Tennessee, USA", "key": "frc4504", "country_name": "USA", "motto": null, "nickname": "B. C. Robotics"}, {"website": "http:///www.wandorobotics.com", "name": "BOSCH/Boeing/SPAWAR/Leidos/NDEP/Blackbaud & Wando High", "locality": "Mt Pleasant", "rookie_year": 2013, "region": "South Carolina", "team_number": 4533, "location": "Mt Pleasant, South Carolina, USA", "key": "frc4533", "country_name": "USA", "motto": "This Means W.A.R.", "nickname": "Wando Adv. Robotics"}, {"website": "http://public.whsd.org/westytek/", "name": "NRG Energy/Sheetz/Sportsman's/Kiwanis Club/Atlantic Broadband/Kongsberg Defense/Community Foundation for the Alleghenies/Somerset Trust Bank & Westmont Hilltop Hs", "locality": "Johnstown", "rookie_year": 2013, "region": "Pennsylvania", "team_number": 4547, "location": "Johnstown, Pennsylvania, USA", "key": "frc4547", "country_name": "USA", "motto": "Like A Bot", "nickname": "WestyTek"}, {"website": "Coming Soon", "name": "NASA & Myrtle Beach High", "locality": "Myrtle Beach", "rookie_year": 2013, "region": "South Carolina", "team_number": 4582, "location": "Myrtle Beach, South Carolina, USA", "key": "frc4582", "country_name": "USA", "motto": null, "nickname": "Robohawks "}, {"website": "Coming Soon", "name": "NASA / SPAWAR / The Citadel & Burke High", "locality": "Charleston", "rookie_year": 2013, "region": "South Carolina", "team_number": 4748, "location": "Charleston, South Carolina, USA", "key": "frc4748", "country_name": "USA", "motto": null, "nickname": "Bulldog Autobots"}, {"website": "Coming Soon", "name": "HTC & LORIS HIGH & LORIS HIGH", "locality": "Loris", "rookie_year": 2013, "region": "South Carolina", "team_number": 4823, "location": "Loris, South Carolina, USA", "key": "frc4823", "country_name": "USA", "motto": null, "nickname": "Cyber-Manes"}, {"website": "Coming Soon", "name": "Green Sea Floyds High", "locality": "Green Sea", "rookie_year": 2013, "region": "South Carolina", "team_number": 4847, "location": "Green Sea, South Carolina, USA", "key": "frc4847", "country_name": "USA", "motto": "No Limits", "nickname": "Tech-No-Logic Trojans"}, {"website": "http://www.garnetsquadron.com/", "name": "University of South Carolina College of Engineering and Computing / Bosch / Bosch Rexroth Corporation / Intel / Fluor Corporation & 4-H Garnet Squadron Robotics", "locality": "Columbia", "rookie_year": 2014, "region": "South Carolina", "team_number": 4901, "location": "Columbia, South Carolina, USA", "key": "frc4901", "country_name": "USA", "motto": "Inspiration is on our radar, is it on yours?", "nickname": "Garnet Squadron"}, {"website": "http://www.firstinspires.org/", "name": "2014 FRC Rookie Grant & Robert Bateman High School", "locality": "Burlington", "rookie_year": 2014, "region": "Ontario", "team_number": 4902, "location": "Burlington, Ontario, Canada", "key": "frc4902", "country_name": "Canada", "motto": null, "nickname": "The Wildebots"}, {"website": "http://www.firstinspires.org/", "name": "BOSCH/Tri-County Technical College/Neighborhood Group", "locality": "Anderson", "rookie_year": 2014, "region": "South Carolina", "team_number": 4965, "location": "Anderson, South Carolina, USA", "key": "frc4965", "country_name": "USA", "motto": "Fired up about Robotics!", "nickname": "FIRE"}, {"website": "http://4992.ca", "name": "Stackpole International / Siemens / York Trafalgar / Discovery Precision Machining / Halton District School Board, HDSB / Halton Pathways / HDSB Technological Education / Miltowne Computers & Craig Kielburger Secondary School", "locality": "Milton", "rookie_year": 2014, "region": "Ontario", "team_number": 4992, "location": "Milton, Ontario, Canada", "key": "frc4992", "country_name": "Canada", "motto": "This is Sparta!", "nickname": "Spartans"}, {"website": "Coming Soon", "name": "Dorman High School/NASA/SEW Eurodrive/Spartanburg Steele & Dorman High", "locality": "Roebuck", "rookie_year": 2014, "region": "South Carolina", "team_number": 5020, "location": "Roebuck, South Carolina, USA", "key": "frc5020", "country_name": "USA", "motto": null, "nickname": "CavBOTS"}, {"website": "http://www.firstinspires.org/", "name": "Washington County Board of Education  / Eastman Chemical Company / TVA / United Grinding / United Capital Lending / Lori Dowling Keller Williams Realty & David Crockett High School", "locality": "Jonesborough", "rookie_year": 2014, "region": "Tennessee", "team_number": 5022, "location": "Jonesborough, Tennessee, USA", "key": "frc5022", "country_name": "USA", "motto": null, "nickname": "Rat Rod Robotics"}, {"website": "http:///aynorrobotics.com", "name": "Metglass Inc. / Altman Animal Hospital / Anderson Brothers Bank / HTC / Dan O. James / Aynor Napa Auto Parts / National Guard / Town of Aynor / Owens Steel & Machine Works / Aynor Building Supply / Charles F. Edge / Aynor Tire Mart / Rabons Inc. / Santino's Pizza Aynor / Nye's Pharmacy / Authentic Signs / Starwood Landscaping / Hucks Painting / Becky McElhaney / Alford Signs & AYNOR HIGH", "locality": "Aynor", "rookie_year": 2014, "region": "South Carolina", "team_number": 5063, "location": "Aynor, South Carolina, USA", "key": "frc5063", "country_name": "USA", "motto": "\"Building tomorrow, one \"BOT\" at a time.\"", "nickname": "BuzzBots"}, {"website": "Coming Soon", "name": "NORTH MYRTLE BEACH HIGH", "locality": "LIttle River", "rookie_year": 2014, "region": "South Carolina", "team_number": 5130, "location": "LIttle River, South Carolina, USA", "key": "frc5130", "country_name": "USA", "motto": null, "nickname": "Undercogs"}, {"website": "https://sites.google.com/a/richland2.org/robotics-club/", "name": "2014 FRC Rookie Grant/FN Manufacturing/Richland School District 2 & Blythewood High", "locality": "Blythewood", "rookie_year": 2014, "region": "South Carolina", "team_number": 5180, "location": "Blythewood, South Carolina, USA", "key": "frc5180", "country_name": "USA", "motto": "We Regret Nothing!", "nickname": "Metal Heads"}, {"website": "Coming Soon", "name": "Richland School District Two & Westwood High School", "locality": "Blythewood", "rookie_year": 2014, "region": "South Carolina", "team_number": 5317, "location": "Blythewood, South Carolina, USA", "key": "frc5317", "country_name": "USA", "motto": null, "nickname": "Redhawks"}, {"website": "http:///www.griffinrobotics.org", "name": "Fairfield County School District & Fairfield Career and Technology Center & Fairfield Central High", "locality": "Winnsboro", "rookie_year": 2014, "region": "South Carolina", "team_number": 5327, "location": "Winnsboro, South Carolina, USA", "key": "frc5327", "country_name": "USA", "motto": "\"Wing it\"", "nickname": "Griffin Robotics"}, {"website": "http://www.firstinspires.org/", "name": "Siemens Canada / Halton District School Board / Pathways / LeoChem / Film.ca / Brampton Brick / B-Safe Electric & Garth Webb Secondary School", "locality": "Oakville", "rookie_year": 2015, "region": "Ontario", "team_number": 5409, "location": "Oakville, Ontario, Canada", "key": "frc5409", "country_name": "Canada", "motto": null, "nickname": "Chargers"}, {"website": "http:///www.eaglebotics.org", "name": "Motorola Solutions Foundation/NASA & North Broward Preparatory School", "locality": "Coconut Creek", "rookie_year": 2015, "region": "Florida", "team_number": 5410, "location": "Coconut Creek, Florida, USA", "key": "frc5410", "country_name": "USA", "motto": "Where Engineers Soar", "nickname": "Eaglebotics"}, {"website": "Coming Soon", "name": "Sumter Career and Technology Center", "locality": "Sumter", "rookie_year": 2015, "region": "South Carolina", "team_number": 5777, "location": "Sumter, South Carolina, USA", "key": "frc5777", "country_name": "USA", "motto": null, "nickname": "Alternate Currents"}, {"website": "Coming Soon", "name": "Darlington High", "locality": "Darlington", "rookie_year": 2016, "region": "South Carolina", "team_number": 5898, "location": "Darlington, South Carolina, USA", "key": "frc5898", "country_name": "USA", "motto": null, "nickname": "RoboFalcons"}, {"website": "http://cbhbearbots.weebly.com", "name": "Carvers Bay High", "locality": "Hemingway", "rookie_year": 2016, "region": "South Carolina", "team_number": 6167, "location": "Hemingway, South Carolina, USA", "key": "frc6167", "country_name": "USA", "motto": "Be tough, be wild, be a Bearbot!", "nickname": "CB Bearbots"}, {"website": "Coming Soon", "name": "Hemingway High", "locality": "Hemingway", "rookie_year": 2016, "region": "South Carolina", "team_number": 6222, "location": "Hemingway, South Carolina, USA", "key": "frc6222", "country_name": "USA", "motto": null, "nickname": "Hemingway Tigers"}, {"website": "http://team900.org/", "name": "Qualcomm / United Therapeutics / IBM / Teleflex / Nvidia / Google / Lockheed Martin / Lenovo & North Carolina School of Science and Mathematics & Durham Public Schools & Local Home Schools", "locality": "Durham", "rookie_year": 2002, "region": "North Carolina", "team_number": 900, "location": "Durham, North Carolina, USA", "key": "frc900", "country_name": "USA", "motto": null, "nickname": "\u265eThe Zebracorns\u265e"}]