[{"website": "http://www.projectneo.net", "name": "NASA/Boeing/Coyote Cabling & Early College High School", "locality": "Las Cruces", "rookie_year": 2003, "region": "New Mexico", "team_number": 1164, "location": "Las Cruces, New Mexico, USA", "key": "frc1164", "country_name": "USA", "motto": "Project NEO Rocks", "nickname": "Project NEO"}, {"website": "www.team1817.org", "name": "X-FAB Mixed-Signal Foundry Experts/CMS Properties/J & T Margaret Talkington Foundation/Texas Tech University/Alpha-Omega Power Technologies/Texas Workforce Commission/Solidworks/St. Clair & Massey Orthodontics/Texas Tech University Engineering Opportunities Center/Texas Instruments/Operation IQ/Design In Threads & Frenship H S & Lubbock H S & Coronado H S & Christ the King Cathedral School & Trinity Christian School", "locality": "Lubbock", "rookie_year": 2006, "region": "Texas", "team_number": 1817, "location": "Lubbock, Texas, USA", "key": "frc1817", "country_name": "USA", "motto": "Raider Power!", "nickname": "Llano Estacado RoboRaiders"}, {"website": "1828BoxerBots.org", "name": "Caterpillar Inc., Tucson/Microchip Technology employees/Vail School District & Vail Academy & High School", "locality": "Vail", "rookie_year": 2006, "region": "Arizona", "team_number": 1828, "location": "Vail, Arizona, USA", "key": "frc1828", "country_name": "USA", "motto": "\"VARSITY ENGINEERING\"", "nickname": "BoxerBots"}, {"website": "http://www.cephatron.com", "name": "Johnson & Johnson & Cephas", "locality": "Sao Jose dos Campos", "rookie_year": 2006, "region": "S\u00e3o Paulo", "team_number": 1860, "location": "Sao Jose dos Campos, S\u00e3o Paulo, Brazil", "key": "frc1860", "country_name": "Brazil", "motto": null, "nickname": "CEPHAS"}, {"website": "http://www.teambroncobots.com", "name": "NASA/Black and Veatch/Honeywell/Kastle Grinding/MJB Insurance Services, Inc/Brunson Instruments/KC Stem Alliance/Show Me Controls/Laird Plastics/Painted with Powder/R&D Tool and Engineering/Fastenal/Phoenix Manufacturing/David Darling/Wentworth Technology Solutions/Lone Oak Lawns/Edwina Smith/PBI (McDonalds) & Lee'S Summit North High", "locality": "Lee\u2019s Summit", "rookie_year": 2007, "region": "Missouri", "team_number": 1987, "location": "Lee\u2019s Summit, Missouri, USA", "key": "frc1987", "country_name": "USA", "motto": null, "nickname": "Broncobots"}, {"website": "http://www.andersonrobotics.org/", "name": "National Instruments/NASA/Freescale Foundation/Texas Workforce Commission/FIRST in Texas/Solidworks/REV Robotics/University of Texas at Austin/ausTIN CANs Supporters Group & Anderson H S", "locality": "Austin", "rookie_year": 2007, "region": "Texas", "team_number": 2158, "location": "Austin, Texas, USA", "key": "frc2158", "country_name": "USA", "motto": "Austin CAN!", "nickname": "ausTIN CANs"}, {"website": "2221.lafrc.org", "name": "Fontainebleau High School", "locality": "Mandeville", "rookie_year": 2007, "region": "Louisiana", "team_number": 2221, "location": "Mandeville, Louisiana, USA", "key": "frc2221", "country_name": "USA", "motto": "\"Do What You're Great At\"", "nickname": "FHS Robodawgs"}, {"website": "n/a", "name": "The Boeing Company / Team TinkerNDEP / Leavitt Signs / S & S Textiles / Little Caesar's Pizza / Brown's Bakery / J-M Distributors & Mount Saint Mary High School", "locality": "Oklahoma City", "rookie_year": 2009, "region": "Oklahoma", "team_number": 2723, "location": "Oklahoma City, Oklahoma, USA", "key": "frc2723", "country_name": "USA", "motto": "Tradition: plywood, zip ties and duck tape!", "nickname": "Team Rocket (formerly Atomic Shock)"}, {"website": "http://www.dvrdragons.webs.com/", "name": "DaVinci Robotics / Texas Workforce Commission / 3M Commission & Davinci School for Science and the Arts", "locality": "El Paso", "rookie_year": 2009, "region": "Texas", "team_number": 3043, "location": "El Paso, Texas, USA", "key": "frc3043", "country_name": "USA", "motto": "There are not such things as problems, just challenges!!", "nickname": "Dragons"}, {"website": "http://www.laser3284.org", "name": "The Boeing Company / Speedline Technologies / Camdenton R-III Afterschool Services / Nihon Superior / STEMfinity / Metaltech / 4H / Community Foundation of the Lake / Pirate's Point & Camdenton High", "locality": "Camdenton", "rookie_year": 2010, "region": "Missouri", "team_number": 3284, "location": "Camdenton, Missouri, USA", "key": "frc3284", "country_name": "USA", "motto": "\"There's no CRYING in robotics.....", "nickname": "Camdenton 4H LASER Team"}, {"website": "http://www.team3310.com", "name": "Special Products and Manufacturing/Innovation First International/Metroplex Women's Care/The Boeing Company/Dell/Texas Workforce Commission/FIRST in Texas/Rockwall Independent School District & Rockwall-Heath H S", "locality": "Heath", "rookie_year": 2010, "region": "Texas", "team_number": 3310, "location": "Heath, Texas, USA", "key": "frc3310", "country_name": "USA", "motto": null, "nickname": "Black Hawk Robotics"}, {"website": "Coming Soon", "name": "University of the Incarnate Word / FIRST in Texas - Dell Grant & St Anthony Catholic High School", "locality": "San Antonio", "rookie_year": 2010, "region": "TX", "team_number": 3345, "location": "San Antonio, TX, USA", "key": "frc3345", "country_name": "USA", "motto": null, "nickname": "Metal Jackets"}, {"website": "www.plowbots3366.com", "name": "West Texas Rock Resources/FIRST in TEXAS/Ludlum Measurement/Napa Auto Parts/Central Fasteners & Roscoe Collegiate H S", "locality": "Roscoe", "rookie_year": 2010, "region": "Texas", "team_number": 3366, "location": "Roscoe, Texas, USA", "key": "frc3366", "country_name": "USA", "motto": "In God we trust, all others bring data.", "nickname": "Plowbots"}, {"website": "www.wcharlesakinshst-stemacademy.com", "name": "Chick-Fil-A/Fire & Soul/Industrial Andons/Reed Prototype & Model/2015 FRC Hardship Grant & Akins H S", "locality": "Austin", "rookie_year": 2010, "region": "Texas", "team_number": 3417, "location": "Austin, Texas, USA", "key": "frc3417", "country_name": "USA", "motto": null, "nickname": "Mechatronics"}, {"website": "http://www.broncbotz.com", "name": "NewTek / ENTRUST Technology Consulting Services / ALCOA / HEB / Texas Workforce Commission::FIRST-in-Texas / Lone Star Powder Coating / GatelyLaw.com / Insurancelabs / SolidWorks / KCI / Castillo Family / Guerrero Family / Blake Family / San Antonio Competition Robotics Alliance (SACRA) / Northside ISD & Brandeis Hs", "locality": "San Antonio", "rookie_year": 2011, "region": "Texas", "team_number": 3481, "location": "San Antonio, Texas, USA", "key": "frc3481", "country_name": "USA", "motto": "IF gum rubber isn't the answer, you're asking the wrong question.", "nickname": "Bronc Botz"}, {"website": "saladorobotics.org", "name": "Salado Independent School District/Bezos Foundation/Texas Workforce Commission/Spakes Family Foundation/First Baptist Church - Salado TX/Franks Family Foundation/Sunshine Family Foundation/St. Stephens Catholic Church/Kim and Erin Bird/Jennifer McFarland/McCoy's Lumber/Bloomer Trailers & Salado H S", "locality": "Salado", "rookie_year": 2011, "region": "TX", "team_number": 3743, "location": "Salado, TX, USA", "key": "frc3743", "country_name": "USA", "motto": "never give up, never surrender", "nickname": "Eagle Bots"}, {"website": "www.poprobots.com", "name": "Texas Workforce Commission/North Texas Contracting & Prince of Peace Christian School", "locality": "Carrollton", "rookie_year": 2011, "region": "Texas", "team_number": 3802, "location": "Carrollton, Texas, USA", "key": "frc3802", "country_name": "USA", "motto": "Prepare to Meet Your Maker", "nickname": "RoboPOP"}, {"website": "www.facebook.com/team4063", "name": "The Bank & Trust / SFDRCISD / SFDRCISD CTE / Bendix / Texas Workforce Commission  / Bezos Family Foundation / NAPA Pro Auto Supply / CIT Solutions  & Del Rio H S", "locality": "Del Rio", "rookie_year": 2012, "region": "Texas", "team_number": 4063, "location": "Del Rio, Texas, USA", "key": "frc4063", "country_name": "USA", "motto": "Gearing our minds", "nickname": "TriKzR4Kidz"}, {"website": "http://www.lasarobotics.org", "name": "3M/Altera/Intuitive Surgical Inc./Smallworks/IBM/Texas Workforce Commission/LASA Robotics Association/FIRST in Texas/Freescale/Dell/solidworks/BAE/National Instruments & Lasa High School", "locality": "Austin", "rookie_year": 2000, "region": "Texas", "team_number": 418, "location": "Austin, Texas, USA", "key": "frc418", "country_name": "USA", "motto": "The beauty of all knowledge lies within its application", "nickname": "Purple Haze"}, {"website": "http://www.firstinspires.org/", "name": "Caprock H S", "locality": "Amarillo", "rookie_year": 2012, "region": "Texas", "team_number": 4298, "location": "Amarillo, Texas, USA", "key": "frc4298", "country_name": "USA", "motto": null, "nickname": "C-RockBotics"}, {"website": "mhsrobotics.com", "name": "Emerson / TWC / FIRST in Texas & MCKINNEY H S", "locality": "McKinney", "rookie_year": 2012, "region": "Texas", "team_number": 4300, "location": "McKinney, Texas, USA", "key": "frc4300", "country_name": "USA", "motto": "The road to success is always under construction.", "nickname": "The Lion Kings"}, {"website": "Coming Soon", "name": "Bezos Family Foundation/Chevron & New Tech Odessa", "locality": "Odessa", "rookie_year": 2012, "region": "Texas", "team_number": 4301, "location": "Odessa, Texas, USA", "key": "frc4301", "country_name": "USA", "motto": "On time, on task, and on a mission.", "nickname": "New Tech Narcissists"}, {"website": "http://shs.sville.us/apps/pages/index.jsp?uREC_ID=169081&type=d&pREC_ID=347290", "name": "Saint Gobain Abrasives/FMC Technologies/Texas Workforce Commission/Mangrum Air Conditioning & Stephenville H S", "locality": "Stephenville", "rookie_year": 2012, "region": "Texas", "team_number": 4364, "location": "Stephenville, Texas, USA", "key": "frc4364", "country_name": "USA", "motto": "Desire, Determination, and Duct Tape!", "nickname": "Metal Jackets"}, {"website": "http://cetmov4401.jimdo.com/", "name": "PE\u00d1OLES S.A. DE C.V. &   CETLAR A.C.", "locality": "Laguna del Rey Coahuila", "rookie_year": 2012, "region": "Coahuila", "team_number": 4401, "location": "Laguna del Rey Coahuila, Coahuila, Mexico", "key": "frc4401", "country_name": "Mexico", "motto": "SAFETY IS OUR PRIORITY", "nickname": "CETMOV"}, {"website": "http://www.firstinspires.org/", "name": "Bryant Motors/Ditzfeld Transfer/Gardner-Denver/Ideal Tool and Manufacturing/JAM Marketing/Maxion Wheels/McCarthy Toyota/W&M Welding/Waterloo Industries, Inc./Duke Manufacturing/Specialty Sportswear & Smith-Cotton High School", "locality": "Sedalia", "rookie_year": 2013, "region": "Missouri", "team_number": 4522, "location": "Sedalia, Missouri, USA", "key": "frc4522", "country_name": "USA", "motto": null, "nickname": "Team SCREAM"}, {"website": "www.greasemonkeys457.org", "name": "Valero Energy Corporation/The Boeing Company/Booz Allen Hamilton/King Pipeline Services, LLC/Kelly Aviation Center Lockheed Martin/Toyota Motor Manufacturing, Texas, Inc./Texas Workforce Commission (FIRST in Texas)/EO2 Concepts/Solidworks/RobotNext/JadCap Machine Works/G-Runners/Alion Science and Technology & South San Antonio High School", "locality": "San Antonio", "rookie_year": 2000, "region": "Texas", "team_number": 457, "location": "San Antonio, Texas, USA", "key": "frc457", "country_name": "USA", "motto": "Monkeying Around with the Future", "nickname": "Grease Monkeys"}, {"website": "Coming Soon", "name": "Griffin Mortuary/Brandon & Clark Inc./DELL Computers/BAE Systems/Texas Work Force Commision/FIRST in Texas/TTU Society for Hispanic Professional Engineers/Harmon Family Farms & Estacado H S", "locality": "Lubbock", "rookie_year": 2013, "region": "Texas", "team_number": 4570, "location": "Lubbock, Texas, USA", "key": "frc4570", "country_name": "USA", "motto": null, "nickname": "Estacado Robodors"}, {"website": "www.eugenio.mx", "name": "Prepa Tec. Tecnol\u00f3gico de Monterrey.", "locality": "Monterrey", "rookie_year": 2013, "region": "Nuevo Le\u00f3n", "team_number": 4635, "location": "Monterrey, Nuevo Le\u00f3n, Mexico", "key": "frc4635", "country_name": "Mexico", "motto": "Inspired and decided!", "nickname": "Eugenio"}, {"website": "http://www.firstinspires.org/", "name": "Enerpipe/Texas workforce commission/tbpa/Timeless Designs/First Texas & Amarillo Area Ctr for Advanced Lrn", "locality": "Amarillo", "rookie_year": 2013, "region": "Texas", "team_number": 4694, "location": "Amarillo, Texas, USA", "key": "frc4694", "country_name": "USA", "motto": "Engineers Design the World!", "nickname": "Atomic Armadillo's"}, {"website": "http://www.facebook.com/Team4717", "name": "First in Texas/Texas Workforce Commission & Lubbock H S", "locality": "Lubbock", "rookie_year": 2013, "region": "Texas", "team_number": 4717, "location": "Lubbock, Texas, USA", "key": "frc4717", "country_name": "USA", "motto": null, "nickname": "The Outlaws"}, {"website": "http://www.firstinspires.org/", "name": "Texas Workforce Commission/Scoggin Dickey Parts Center/Monsanto /G T Service and Machine/Pick Up PALS/Parkhill Smith and Cooper/Temple Electric/KS Supply/Alderson Catillac/Advance Graphix/Teinert Metals/Batterey Joe & Monterey H S", "locality": "Lubbock", "rookie_year": 2013, "region": "Texas", "team_number": 4734, "location": "Lubbock, Texas, USA", "key": "frc4734", "country_name": "USA", "motto": null, "nickname": "The Iron Plainsmen"}, {"website": "http://classroom.lazbuddieisd.org/webs/laz.robotics12/", "name": "Texas Workforce Commission, Society of Women Engineers & Lazbuddie School & Lazbuddie School", "locality": "Lazbuddie", "rookie_year": 2013, "region": "Texas", "team_number": 4799, "location": "Lazbuddie, Texas, USA", "key": "frc4799", "country_name": "USA", "motto": "Building for the future", "nickname": "Lazbuddie Robotics sponsored by Society of Women Engineers"}, {"website": "http://www.botrregos4842.com", "name": "Honeywell Aerospace / Arvixe, LLC / American Industries & Prepatec Campus Chihuahua", "locality": "Chihuahua", "rookie_year": 2013, "region": "Chihuahua", "team_number": 4842, "location": "Chihuahua, Chihuahua, Mexico", "key": "frc4842", "country_name": "Mexico", "motto": "Teamwork makes the dream work", "nickname": "Botrregos"}, {"website": "Coming Soon", "name": "Shallowater Boys & Girls Club", "locality": "Shallowater", "rookie_year": 2013, "region": "Texas", "team_number": 4852, "location": "Shallowater, Texas, USA", "key": "frc4852", "country_name": "USA", "motto": null, "nickname": "The Eliminators"}, {"website": "http://www.staleyrobotics.com/", "name": "Honeywell/NKC Education Foundation/Staley High School/Sprint/2015 FRC Year 2 Rookie Grant/Staley High School Falcon Club/Big Red Decorative Concrete & Staley High", "locality": "Kansas City", "rookie_year": 2014, "region": "Missouri", "team_number": 4959, "location": "Kansas City, Missouri, USA", "key": "frc4959", "country_name": "USA", "motto": null, "nickname": "Millennium Falcons"}, {"website": "www.dvsystems1.weebly.com", "name": "Boeing/Texas Workforce Commission  & Del Valle Hs", "locality": "El Paso", "rookie_year": 2014, "region": "TX", "team_number": 5047, "location": "El Paso, TX, USA", "key": "frc5047", "country_name": "USA", "motto": "One Family, One Destiny", "nickname": "DV CONQUISTABOTS"}, {"website": "tamsrobotics.org", "name": "Texas Workforce Commission & Texas Academy of Mathematics and Science", "locality": "Denton", "rookie_year": 2014, "region": "Texas", "team_number": 5212, "location": "Denton, Texas, USA", "key": "frc5212", "country_name": "USA", "motto": null, "nickname": "TAMSformers Robotics "}, {"website": "https://www.facebook.com/Lobotics-5312-595329093860208/?ref=hl", "name": "Industrias Pe\u00f1oles & Escuela Carlos Pereyra & Escuela Carlos Pereyra", "locality": "Torreon", "rookie_year": 2014, "region": "Coahuila", "team_number": 5312, "location": "Torreon, Coahuila, Mexico", "key": "frc5312", "country_name": "Mexico", "motto": "We are the soul of our robot.", "nickname": "Lobotics"}, {"website": "www.tcats5526.com", "name": "Industrias Pe\u00f1oles & Colegio Americano de Torreon", "locality": "Torreon", "rookie_year": 2015, "region": "COA", "team_number": 5526, "location": "Torreon, COA, Mexico", "key": "frc5526", "country_name": "Mexico", "motto": "Excellence for Life Through Science and Technology", "nickname": "tCATs"}, {"website": "www.frc5572.org", "name": "Texas Workforce Commission / IBM / Engineering and Construction Contracting Association (ECC) & Lee H S", "locality": "San Antonio", "rookie_year": 2015, "region": "Texas", "team_number": 5572, "location": "San Antonio, Texas, USA", "key": "frc5572", "country_name": "USA", "motto": null, "nickname": "ROSBOTS"}, {"website": "www.thunderdogs5613.com", "name": "The Boeing Company/OteroSTEM/New Mexico Museum of Space History Alamogordo/United States Air Force/John Glass Farmers Insurance & Alamogordo High", "locality": "Alamogordo", "rookie_year": 2015, "region": "New Mexico", "team_number": 5613, "location": "Alamogordo, New Mexico, USA", "key": "frc5613", "country_name": "USA", "motto": null, "nickname": "ThunderDogs"}, {"website": "https://www.facebook.com/MarfaRobotics", "name": "Marfa Junior/Senior High", "locality": "Marfa", "rookie_year": 2015, "region": "TX", "team_number": 5771, "location": "Marfa, TX, USA", "key": "frc5771", "country_name": "USA", "motto": null, "nickname": "Marfa Robohorns"}, {"website": "Coming Soon", "name": "URENCO USA/Eunice Public Schools/Cardinal Hardware & Eunice High", "locality": "Eunice", "rookie_year": 2015, "region": "New Mexico", "team_number": 5783, "location": "Eunice, New Mexico, USA", "key": "frc5783", "country_name": "USA", "motto": null, "nickname": "RoboDucks"}, {"website": "Coming Soon", "name": "Frenship H S", "locality": "Wolfforth", "rookie_year": 2016, "region": "Texas", "team_number": 5866, "location": "Wolfforth, Texas, USA", "key": "frc5866", "country_name": "USA", "motto": null, "nickname": "Frenship JETS"}, {"website": "Coming Soon", "name": "Coronado H S", "locality": "Lubbock", "rookie_year": 2016, "region": "Texas", "team_number": 5888, "location": "Lubbock, Texas, USA", "key": "frc5888", "country_name": "USA", "motto": null, "nickname": "Mustang Robotics"}, {"website": "Coming Soon", "name": "Texas Workforce Commission & Loretto Academy", "locality": "El Paso", "rookie_year": 2016, "region": "Texas", "team_number": 6144, "location": "El Paso, Texas, USA", "key": "frc6144", "country_name": "USA", "motto": null, "nickname": "Angelbots Gold"}, {"website": "Coming Soon", "name": "Texas Workforce Commission & Southcrest Christian School", "locality": "Lubbock", "rookie_year": 2016, "region": "Texas", "team_number": 6209, "location": "Lubbock, Texas, USA", "key": "frc6209", "country_name": "USA", "motto": null, "nickname": "Robo Warriors"}]