[{"website": "http://www.pantherrobotics.com", "name": "City of Paola / Dean Scherman Memorial Fund / The Baehr Foundation / KC Power Source / National Instruments / Monsanto Fund / Kalmar Solutions & Paola High", "locality": "Paola", "rookie_year": 2003, "region": "Kansas", "team_number": 1108, "location": "Paola, Kansas, USA", "key": "frc1108", "country_name": "USA", "motto": "A Panther among robots is a most fearsome thing.", "nickname": "Panther Robotics"}, {"website": "http://www.1723fbi.net", "name": "Honeywell/A & E Custom Manufacturing/KC STEM Alliance & William Chrisman High & Truman High & Van Horn High", "locality": "Independence", "rookie_year": 2006, "region": "Missouri", "team_number": 1723, "location": "Independence, Missouri, USA", "key": "frc1723", "country_name": "USA", "motto": "1723 Cannot Be Divided", "nickname": "The FBI - FIRST Bots of Independence"}, {"website": "http://www.teamdriven.us", "name": "R&D Leverage/Cerner/Honeywell/Black & Veatch/Fike/Sioux Chief/Kastle Grinding/Hallmark Cards/Sprint/5 Star Embroidery/KC STEM Alliance/Pickett Family & Lee's Summit Sr. High", "locality": "Lee\u2019s Summit", "rookie_year": 2006, "region": "Missouri", "team_number": 1730, "location": "Lee\u2019s Summit, Missouri, USA", "key": "frc1730", "country_name": "USA", "motto": "Driven to Succeed", "nickname": "Team Driven"}, {"website": "http://www.facebook.com/media/set/?set=a.559617530716899.125435.511700455508607&type=1#!/pages/ESHS-Robotics-Project-X/511700455508607", "name": "Gregg Williams Foundation/KC Machine/The Trudy Foundation/Kansas City STEM Alliance/Westlake Ace Hardware/FIRST/Autozone & Excelsior Springs High", "locality": "Excelsior Springs", "rookie_year": 2006, "region": "Missouri", "team_number": 1737, "location": "Excelsior Springs, Missouri, USA", "key": "frc1737", "country_name": "USA", "motto": "Graciously Professional, Hungry for Excellence!", "nickname": "Project X"}, {"website": "http://Paseorobotics.Wordpress.com", "name": "MRI Global/KC STEM Alliance/UMKC School of Computing and Engineering/Google Fiber/KCPS/Ewing Marion Kauffman Foundation/Honeywell/US Engineering/Mark One Electric Company, Inc/JE Dunn Construction/BNIM/NNSA & Paseo Acad. of Performing Arts", "locality": "Kansas City", "rookie_year": 2006, "region": "Missouri", "team_number": 1763, "location": "Kansas City, Missouri, USA", "key": "frc1763", "country_name": "USA", "motto": "Building Robots Is Our Art!", "nickname": "Paseliens"}, {"website": "http://first1764.liberty.k12.mo.us/", "name": "Liberty Robotics Foundation/Gary Crossley Ford/East Clay Rotary Club/Argus Consulting/KC STEM Alliance/Honeywell/Laird Plastics/Pride Manufacturing & Liberty High & Liberty North High School", "locality": "Liberty", "rookie_year": 2006, "region": "Missouri", "team_number": 1764, "location": "Liberty, Missouri, USA", "key": "frc1764", "country_name": "USA", "motto": "\"The Robot Builds Me\"", "nickname": "Liberty Robotics"}, {"website": "http://wwww.kckharmon.schoolloop.com/", "name": "Garmin International, Inc./KC STEM  Alliance/KCK School District & J C Harmon High", "locality": "Kansas City", "rookie_year": 2006, "region": "Kansas", "team_number": 1769, "location": "Kansas City, Kansas, USA", "key": "frc1769", "country_name": "USA", "motto": "Success is getting up just one more time than you fall down", "nickname": "Digital Hawks"}, {"website": "http://www.firstinspires.org/", "name": "Hallmark Cards/KC STEM Alliance/U.S. Engineering & Lincoln College Prep.", "locality": "Kansas City", "rookie_year": 2006, "region": "Missouri", "team_number": 1775, "location": "Kansas City, Missouri, USA", "key": "frc1775", "country_name": "USA", "motto": null, "nickname": "Tigerbytes"}, {"website": "http://www.firstinspires.org/", "name": "RTE Technologies, Inc. & Shawnee Mission West High", "locality": "Overland Park", "rookie_year": 2006, "region": "Kansas", "team_number": 1777, "location": "Overland Park, Kansas, USA", "key": "frc1777", "country_name": "USA", "motto": "\"Prepare to Be Pillaged\"", "nickname": "Viking Robotics"}, {"website": "http://www.bluespringsrobotics.net", "name": "Steel Source/ATK/Double C Industries, Inc/Honeywell/Print Graphics/McDaniels & Freshman Ctr. - G. Baker Bldg. & Blue Springs High & Blue Springs South High", "locality": "Blue Springs", "rookie_year": 2006, "region": "Missouri", "team_number": 1785, "location": "Blue Springs, Missouri, USA", "key": "frc1785", "country_name": "USA", "motto": null, "nickname": "Blue Springs Robocats"}, {"website": "http://stealth.piperschools.us", "name": "KC STEM Alliance/Black & Veatch/Honeywell & Piper High", "locality": "Kansas City", "rookie_year": 2006, "region": "Kansas", "team_number": 1802, "location": "Kansas City, Kansas, USA", "key": "frc1802", "country_name": "USA", "motto": "Tempus Fugit", "nickname": "Team Stealth"}, {"website": "http://www.smithvillehighrobotics.com/", "name": "LABCONCO / Chuck and Joan Hitchborn / Darrell Smith / Community America Credit Union / Citizens Bank & Trust / WESCO Distribution & Smithville High", "locality": "Smithville", "rookie_year": 2006, "region": "Missouri", "team_number": 1806, "location": "Smithville, Missouri, USA", "key": "frc1806", "country_name": "USA", "motto": "Use it up, Wear it out, Make it do or do without.", "nickname": "S.W.A.T."}, {"website": "http://1810jaguarrobotics.wix.com/jaguar-robotics-1810", "name": "LeVic Plastics/Black and Veatch/Grundfos/Harold Payne Plastics Lc/Shawnee Cycle/Honeywell International/IBM/Hallmark Corporate Foundation/Structura/KC STEM Alliance/Festo/Dimensional Innovations/Ewing Marion Kauffman Foundation/Weaver's Auto Center/FastSigns/Gorilla Glue & Mill Valley High School", "locality": "Shawnee", "rookie_year": 2006, "region": "Kansas", "team_number": 1810, "location": "Shawnee, Kansas, USA", "key": "frc1810", "country_name": "USA", "motto": null, "nickname": "Jaguar Robotics"}, {"website": "www.metrohomeschoolrobotics.org", "name": "C K Enterprises, Inc. / Carpenter's District Council / Associated Women's Care Physicians, P.C. / Fike / Optimist Club of Lake Lotawana / Lock Box Storage / Prestige One Landscaping / Hy-Vee / The Horn Law Firm, PC / Lakewood Chiropractic, PC / goodbidding.org / Power On Technologies, Inc. / KC STEM Alliance / USA800 & Metro Homeschool Robotics, Inc.", "locality": "Lees Summit", "rookie_year": 2006, "region": "Missouri", "team_number": 1825, "location": "Lees Summit, Missouri, USA", "key": "frc1825", "country_name": "USA", "motto": "\"Think Outside the Cube\"", "nickname": "The Cyborgs"}, {"website": "http://www.firstinspires.org/", "name": "NASA/Honeywell FM&T LLC/Kauffman Foundation/Center HS PTA/Google/KCStem/Center Foundation & Center Sr. High", "locality": "Kansas City", "rookie_year": 2006, "region": "Missouri", "team_number": 1827, "location": "Kansas City, Missouri, USA", "key": "frc1827", "country_name": "USA", "motto": "It's not about the destination, it's about the journey.", "nickname": "Robo-Jackets"}, {"website": "http://www.firstinspires.org/", "name": "Kansas City Kansas Public Schools/KC STEM Alliance & Wyandotte High", "locality": "Kansas City", "rookie_year": 2006, "region": "Kansas", "team_number": 1847, "location": "Kansas City, Kansas, USA", "key": "frc1847", "country_name": "USA", "motto": "We don't just build Robots, We build Engineers", "nickname": "Ladder 1847"}, {"website": "http://firstteam1939.com", "name": "THE BARSTOW SCHOOL", "locality": "Kansas City", "rookie_year": 2006, "region": "Missouri", "team_number": 1939, "location": "Kansas City, Missouri, USA", "key": "frc1939", "country_name": "USA", "motto": "That rabbit is dynamite!", "nickname": "THE KUHNIGITS"}, {"website": "http://www.nwcougarrobotics.weebly.com", "name": "BlueScope Construction / Black & Veatch / Wood by Design / Shawnee Mission Education Foundation & SHAWNEE MISSION NORTHWEST HIGH", "locality": "Shawnee", "rookie_year": 2007, "region": "Kansas", "team_number": 1982, "location": "Shawnee, Kansas, USA", "key": "frc1982", "country_name": "USA", "motto": null, "nickname": "Cougar Robotics"}, {"website": "www.raiderrevolutionrobotics.com", "name": "Kansas City Power and Light/Honeywell Hometown Solutions/Ewing Marion Kauffman Foundaton/Shawnee Mission Education Foundation & SHAWNEE MISSION SOUTH HIGH", "locality": "Overland Park", "rookie_year": 2007, "region": "Kansas", "team_number": 1984, "location": "Overland Park, Kansas, USA", "key": "frc1984", "country_name": "USA", "motto": "Putting the Pieces Together", "nickname": "Raider Revolution Robotics"}, {"website": "http://www.teamtitanium.org/", "name": "TradeBot / Venture Industrial Products / National Instruments / WireCo WorldGroup / Clarcor Inc. / Michael & Jayne Hartwig / Shawn & Kristen Roy / Delmer & Ruth Harris / Dr. Tom Cates / Honeywell FM&T / Intuitive Surgical, Inc / IBM / American Century Investments / Metals USA / US Engineering / Paradise Park / Mr. Longarm / Dairy Queen / Kastle Grinding / CK Enterprises / Billy Goat Industries & Lee's Summit West High", "locality": "Lee's Summit", "rookie_year": 2007, "region": "MO", "team_number": 1986, "location": "Lee's Summit, MO, USA", "key": "frc1986", "country_name": "USA", "motto": "Engineering Engineers", "nickname": "Team Titanium"}, {"website": "http://www.teambroncobots.com", "name": "NASA/Black and Veatch/Honeywell/Kastle Grinding/MJB Insurance Services, Inc/Brunson Instruments/KC Stem Alliance/Show Me Controls/Laird Plastics/Painted with Powder/R&D Tool and Engineering/Fastenal/Phoenix Manufacturing/David Darling/Wentworth Technology Solutions/Lone Oak Lawns/Edwina Smith/PBI (McDonalds) & Lee'S Summit North High", "locality": "Lee\u2019s Summit", "rookie_year": 2007, "region": "Missouri", "team_number": 1987, "location": "Lee\u2019s Summit, Missouri, USA", "key": "frc1987", "country_name": "USA", "motto": null, "nickname": "Broncobots"}, {"website": "http://www.firstinspires.org/", "name": "Kansas City Kansas Public Schools/KC Stem Alliance & F L Schlagle High", "locality": "Kansas City", "rookie_year": 2007, "region": "Kansas", "team_number": 1994, "location": "Kansas City, Kansas, USA", "key": "frc1994", "country_name": "USA", "motto": null, "nickname": "Horse Power!"}, {"website": "www.stagroboticsteam1997.com", "name": "Bishop Miege High School/TG Construction/Friends of STAGrobotics/Altec Industries & Bishop Miege High School", "locality": "Roeland Park", "rookie_year": 2007, "region": "Kansas", "team_number": 1997, "location": "Roeland Park, Kansas, USA", "key": "frc1997", "country_name": "USA", "motto": "We Solve Problems", "nickname": "Stag Robotics"}, {"website": "http://www.eaglesrobotics.com", "name": "Hickman Mills School District / Best Buy / KC STEM Alliance & Ruskin High School", "locality": "Kansas City", "rookie_year": 2007, "region": "Missouri", "team_number": 2001, "location": "Kansas City, Missouri, USA", "key": "frc2001", "country_name": "USA", "motto": "We can rebuild it ... We have the technology", "nickname": "HERMES"}, {"website": "http://www.hhsrobotics.com/", "name": "Sonic Drive-In Harrisonville, MO / Baptist Missionary Transportation Ministry / Honeywell / Eerle M. Jorgensen Company / Families of Team 2164 & Harrisonville High & Cass County 4-H", "locality": "Harrisonville", "rookie_year": 2007, "region": "Missouri", "team_number": 2164, "location": "Harrisonville, Missouri, USA", "key": "frc2164", "country_name": "USA", "motto": "Building a Legacy", "nickname": "2164 The Corps"}, {"website": "http://www.firstinspires.org/", "name": "Northwest Missouri State University - Missouri Academy", "locality": "Maryville", "rookie_year": 2007, "region": "Missouri", "team_number": 2167, "location": "Maryville, Missouri, USA", "key": "frc2167", "country_name": "USA", "motto": null, "nickname": "Radical Tech"}, {"website": "http://www.beastrobotics.com", "name": "GE Volunteers / ABB Drives / United Technologies Corporation / Teradata / Milwaukee School of Engineering / ESI / Boyle-Frederickson / Signicast / SysLogic / Trace-A-Matic / Milwaukee Tool / Sentry Equipment / First Bank Financial Centre & East High & Central High", "locality": "Brookfield", "rookie_year": 2007, "region": "WI", "team_number": 2202, "location": "Brookfield, WI, USA", "key": "frc2202", "country_name": "USA", "motto": "FIRST Things First!", "nickname": "BEAST Robotics"}, {"website": "http://www.sargonrobotics.com", "name": "Shawnee Mission East High", "locality": "Prairie Village", "rookie_year": 2008, "region": "Kansas", "team_number": 2335, "location": "Prairie Village, Kansas, USA", "key": "frc2335", "country_name": "USA", "motto": "Conquering through cooperation", "nickname": "Sargon"}, {"website": "http://www.firstinspires.org/", "name": "Kearney School Distrtict / OKStats / EPIC Electric / Honeywell / Cole Printing / Kearney Commercial Bank / Westbrook Care Center / Kearney Trust Company / Platte Clay Electric Cooperative / First Missouri Bank & Kearney High", "locality": "Kearney", "rookie_year": 2008, "region": "Missouri", "team_number": 2345, "location": "Kearney, Missouri, USA", "key": "frc2345", "country_name": "USA", "motto": null, "nickname": "Animal Control"}, {"website": "https://sites.google.com/a/oharahs.org/ohara-celtechs/", "name": "Aramark / Shuttlewagon / Archbishop O'Hara Parents Club / Steve's Auto  / Kastle Grinding / Durbin Tree Servic / North KC Iron and Metal / Hey Mechanical / Paradise Locker Meats / Smith Brothers Hardware / Vance Brothers & ARCHBISHOP O' HARA HIGH SCHOOL", "locality": "Kansas City", "rookie_year": 2008, "region": "Missouri", "team_number": 2346, "location": "Kansas City, Missouri, USA", "key": "frc2346", "country_name": "USA", "motto": null, "nickname": "Cel-Techs"}, {"website": "http://www.firstinspires.org/", "name": "Honey Well & the Pembroke Hill School", "locality": "Kansas City", "rookie_year": 2008, "region": "Missouri", "team_number": 2353, "location": "Kansas City, Missouri, USA", "key": "frc2353", "country_name": "USA", "motto": null, "nickname": "The Legion"}, {"website": "https://sites.google.com/a/raypec.org/raypec-robotics-team-2357/", "name": "Raymore Peculiar High School/Black & Veatch/Garmin & Raymore-Peculiar Sr. High", "locality": "Peculiar", "rookie_year": 2008, "region": "Missouri", "team_number": 2357, "location": "Peculiar, Missouri, USA", "key": "frc2357", "country_name": "USA", "motto": null, "nickname": "System Meltdown"}, {"website": "http://www.mmr2410.com/", "name": "Blue Valley Educational Foundation/Sprint Corporation/General Motors/Honeywell/Cerner Corporation/Ryerson/NASA & Blue Valley Center For Professional Studies", "locality": "Overland Park", "rookie_year": 2008, "region": "Kansas", "team_number": 2410, "location": "Overland Park, Kansas, USA", "key": "frc2410", "country_name": "USA", "motto": "Do what you love; love what you do. Work hard for others; they'll do that for yo", "nickname": "Blue Valley CAPS Metal Mustang Robotics"}, {"website": "www.team2457.us", "name": "DST Systems Inc / Black & Veatch / Ross Mechanical, Inc / Lockton / American Family Insurance, John Flacke Agency / Lawson United Christian & Presbyterian Church / Bill & Karen Morrow / Goppert Financial Bank / Lawson Review / Coveris / Casey's General Store / N2 Solutions Group / Reece & Nichols Northstar / XI MU BETA  / Platte Clay Electric & Lawson High", "locality": "Lawson", "rookie_year": 2008, "region": "Missouri", "team_number": 2457, "location": "Lawson, Missouri, USA", "key": "frc2457", "country_name": "USA", "motto": "Problems, the pathways to perfection!!!", "nickname": "The Law"}, {"website": "http://www.grandviewrobodog.org", "name": "Consolidated School District #4/Grandview Education Foundation/Honeywell/KC STEM Alliance/Techni-Serve/Cerner Corporation/Flint Hills Clay & Grandview Sr. High", "locality": "Grandview", "rookie_year": 2008, "region": "Missouri", "team_number": 2560, "location": "Grandview, Missouri, USA", "key": "frc2560", "country_name": "USA", "motto": "Go, Dog, Go!", "nickname": "RoboDog"}, {"website": " ", "name": "Honeywell FM&T/DeHaan Remodeling/Absolute Automotive/Show-Me Controls & Automation LLC/Master Carpet Care/May Technology & Mfg. Inc/Schefers Roofing/Hullmark, LLC & Grain Valley High", "locality": "Grain Valley", "rookie_year": 2009, "region": "Missouri", "team_number": 2874, "location": "Grain Valley, Missouri, USA", "key": "frc2874", "country_name": "USA", "motto": "Together we can!", "nickname": "Eagles"}, {"website": "http://thethirtyfirst.weebly.com/", "name": "Williams / OSDE / AEP / Boeing / National Defense Education Program & Jenks Hs", "locality": "Jenks", "rookie_year": 1997, "region": "Oklahoma", "team_number": 31, "location": "Jenks, Oklahoma, USA", "key": "frc31", "country_name": "USA", "motto": null, "nickname": "Prime Movers"}, {"website": "http://www.team3172.com", "name": "Great Plains Manufacturing/Greater Salina Community Foundation/Salina Public Schools USD 305/Berndt Farms & Salina High Central & Salina High South", "locality": "Salina", "rookie_year": 2010, "region": "Kansas", "team_number": 3172, "location": "Salina, Kansas, USA", "key": "frc3172", "country_name": "USA", "motto": "\"Overcoming barriers to performance is how groups become teams\"", "nickname": "HorsePOWER"}, {"website": "http://www.firstinspires.org/", "name": "KCSTEM Alliance/Black & Veatch/ Burns & McDonnell/Cerner/DST/Garmin/Google Fiber/Honeywell/US Engineering & Bishop Ward High School", "locality": "Kansas City", "rookie_year": 2011, "region": "Kansas", "team_number": 3485, "location": "Kansas City, Kansas, USA", "key": "frc3485", "country_name": "USA", "motto": "scientia ac labore - knowledge as a result of work", "nickname": "Cyclone Robotics"}, {"website": "http://www.teamupnext.com", "name": "Metropolitan Community College/IBM/ATK Community Reinvestment/Constance Tobin/KC STEM Alliance/Hunts Car Care Centers/G & K Services/Bank of America/Kearney Trust/Clay County Savings Association & Home School", "locality": "Kansas City", "rookie_year": 2011, "region": "Missouri", "team_number": 3528, "location": "Kansas City, Missouri, USA", "key": "frc3528", "country_name": "USA", "motto": "For HIS Glory!", "nickname": "Up Next"}, {"website": "http://www.firstinspires.org/", "name": "Society of Women Engineers/Waterloo Industries, Inc./University of Central Missouri/Geek Details/B-Quip/Lowe's & Warrensburg High", "locality": "Warrensburg", "rookie_year": 2013, "region": "Missouri", "team_number": 4455, "location": "Warrensburg, Missouri, USA", "key": "frc4455", "country_name": "USA", "motto": "Bots Made to Order", "nickname": "The Burger Bots"}, {"website": "http://www.firstinspires.org/", "name": "Bryant Motors/Ditzfeld Transfer/Gardner-Denver/Ideal Tool and Manufacturing/JAM Marketing/Maxion Wheels/McCarthy Toyota/W&M Welding/Waterloo Industries, Inc./Duke Manufacturing/Specialty Sportswear & Smith-Cotton High School", "locality": "Sedalia", "rookie_year": 2013, "region": "Missouri", "team_number": 4522, "location": "Sedalia, Missouri, USA", "key": "frc4522", "country_name": "USA", "motto": null, "nickname": "Team SCREAM"}, {"website": "http://www.firstinspires.org/", "name": "Moore Fan Company & Marceline High", "locality": "Marceline", "rookie_year": 2013, "region": "Missouri", "team_number": 4809, "location": "Marceline, Missouri, USA", "key": "frc4809", "country_name": "USA", "motto": null, "nickname": "Black Knight Robotics"}, {"website": "http://www.staleyrobotics.com/", "name": "Honeywell/NKC Education Foundation/Staley High School/Sprint/2015 FRC Year 2 Rookie Grant/Staley High School Falcon Club/Big Red Decorative Concrete & Staley High", "locality": "Kansas City", "rookie_year": 2014, "region": "Missouri", "team_number": 4959, "location": "Kansas City, Missouri, USA", "key": "frc4959", "country_name": "USA", "motto": null, "nickname": "Millennium Falcons"}, {"website": "http://trobots.org", "name": "Park Hill High", "locality": "Kansas City", "rookie_year": 2014, "region": "Missouri", "team_number": 5013, "location": "Kansas City, Missouri, USA", "key": "frc5013", "country_name": "USA", "motto": null, "nickname": "Trobots"}, {"website": "http://oakparkfirstrobotics.weebly.com/", "name": "OAK PARK HIGH", "locality": "Kansas City", "rookie_year": 2014, "region": "Missouri", "team_number": 5082, "location": "Kansas City, Missouri, USA", "key": "frc5082", "country_name": "USA", "motto": null, "nickname": "Northmen Robotics"}, {"website": "www.northtownrobotics.com", "name": "ClayCo Electric Company / NKC Iron and Metal / KC STEM Alliance / MoKan Ironworkers / North Kansas City Education Foundation / Lowe's  / Family Dollar / North Kansas City Nuts & Bolts & North Kansas City High", "locality": "North Kansas City", "rookie_year": 2014, "region": "Missouri", "team_number": 5098, "location": "North Kansas City, Missouri, USA", "key": "frc5098", "country_name": "USA", "motto": "If you're not FIRST, You're Last", "nickname": "STING - R"}, {"website": "http://www.firstinspires.org/", "name": "Hallmark Cards, Inc. & Lawrence Free State High & Lawrence High & Lawrence Virtual High School", "locality": "Lawrence", "rookie_year": 2014, "region": "Kansas", "team_number": 5119, "location": "Lawrence, Kansas, USA", "key": "frc5119", "country_name": "USA", "motto": null, "nickname": "Team STEAM"}, {"website": "http://www.frc5126.com", "name": "KCStem Alliance/A&E Custom MFG/Laird Plastics/Google Fiber & Park Hill South High", "locality": "Riverside", "rookie_year": 2014, "region": "Missouri", "team_number": 5126, "location": "Riverside, Missouri, USA", "key": "frc5126", "country_name": "USA", "motto": null, "nickname": "Team E.M.P (Park Hill South Robotics)"}, {"website": "www.priderobotics.com", "name": "North Kansas City School District/Peerless Conveyor/North Kansas City Schools Education Foundation/KC STEM Alliance/Reach for the Stars, Inc/Argosy Foundation Grant/Sears/Coulston Construction & Winnetonka High", "locality": "Kansas City", "rookie_year": 2014, "region": "Missouri", "team_number": 5141, "location": "Kansas City, Missouri, USA", "key": "frc5141", "country_name": "USA", "motto": "Winnetonka PRIDE", "nickname": "PRIDE Robotics"}, {"website": "https://www.facebook.com/SumnerAcademyRobotics", "name": "Sumner Academy of Arts & Science", "locality": "Kansas City", "rookie_year": 2014, "region": "Kansas", "team_number": 5189, "location": "Kansas City, Kansas, USA", "key": "frc5189", "country_name": "USA", "motto": null, "nickname": "Spartans in Arms"}, {"website": "http://www.biomechfalcons.com/", "name": "Garmin / Henderson Engineers / Honeywell / NASA / Bloch Tansportation & OLATHE SOUTH SR HIGH", "locality": "Olathe", "rookie_year": 2014, "region": "Kansas", "team_number": 5268, "location": "Olathe, Kansas, USA", "key": "frc5268", "country_name": "USA", "motto": "Read the Directions - What  Directions?!?", "nickname": "The Bio-Mech Falcons"}, {"website": "http://www.firstinspires.org/", "name": "Monett High", "locality": "Monett", "rookie_year": 2015, "region": "Missouri", "team_number": 5730, "location": "Monett, Missouri, USA", "key": "frc5730", "country_name": "USA", "motto": null, "nickname": "The Professionals "}, {"website": "https://sites.google.com/a/fortosage.net/ctc-robotics", "name": "Car. & Tech. Ctr. at Ft. Osage", "locality": "Independence", "rookie_year": 2016, "region": "Missouri", "team_number": 5801, "location": "Independence, Missouri, USA", "key": "frc5801", "country_name": "USA", "motto": null, "nickname": "CTC Inspire"}, {"website": "http://www.firstinspires.org/", "name": "Rockhurst High School", "locality": "Kansas City", "rookie_year": 2016, "region": "Missouri", "team_number": 5809, "location": "Kansas City, Missouri, USA", "key": "frc5809", "country_name": "USA", "motto": "AMDG", "nickname": "The Jesubots"}, {"website": "http://www.firstinspires.org/", "name": "Cristo Rey Kansas City", "locality": "Kansas City", "rookie_year": 2016, "region": "Missouri", "team_number": 5918, "location": "Kansas City, Missouri, USA", "key": "frc5918", "country_name": "USA", "motto": null, "nickname": "Pumatron"}, {"website": "http://www.firstinspires.org/", "name": "Holden High", "locality": "Holden", "rookie_year": 2016, "region": "Missouri", "team_number": 5925, "location": "Holden, Missouri, USA", "key": "frc5925", "country_name": "USA", "motto": null, "nickname": "Holden High Robotics"}, {"website": "http://www.firstinspires.org/", "name": "Manhattan High School West/East Campus", "locality": "Manhattan", "rookie_year": 2016, "region": "Kansas", "team_number": 5968, "location": "Manhattan, Kansas, USA", "key": "frc5968", "country_name": "USA", "motto": null, "nickname": "Cyborg Indians"}, {"website": "http://team935.com", "name": "The Boeing Company/Higgs Tech Consulting/SRES/SME/James Allen & Newton Sr High", "locality": "Newton", "rookie_year": 2002, "region": "Kansas", "team_number": 935, "location": "Newton, Kansas, USA", "key": "frc935", "country_name": "USA", "motto": "Inspiration of today technology of tommorow", "nickname": "RaileRobotics"}, {"website": "smnorthrobotics.com", "name": "KC STEM Alliance/Clarcor Industrial Air/DeVry University/Garmin/Honeywell/Shawnee Mission North Booster Club/Lanmarx Graphix INC./Highwire Promotional Specialities/Homer Works/Shawnee Mission North PTSA/McDonald's Corporation/Cowtown Computer Congress of Kansas City/Ewing Marion Kaufmann Foundation/DST/Google Fiber/Black & Veatch/Burns & McDonnell/Cerner/US Engineering & SHAWNEE MISSION NORTH HIGH", "locality": "Overland Park", "rookie_year": 2002, "region": "Kansas", "team_number": 937, "location": "Overland Park, Kansas, USA", "key": "frc937", "country_name": "USA", "motto": "Dream, Build, Succeed!", "nickname": "Robo Tribe"}, {"website": "http://www.firstinspires.org/", "name": "The Boeing Company / Suffron Glass / Garrett's Fireworks / Wettstein Auto Repair and Welding & CENTRAL HEIGHTS HIGH", "locality": "Richmond", "rookie_year": 2002, "region": "Kansas", "team_number": 938, "location": "Richmond, Kansas, USA", "key": "frc938", "country_name": "USA", "motto": "Saving the world one mind at a time.", "nickname": "Team Botman"}]