[{"website": "btwrobotics.com", "name": "University of Tulsa/The Boeing Company/AEP/Booker T. Washington Foundation for Academic Excellence/National Defense Education Program/Oklahoma State Department of Education/Frontier Electronic Systems/Brown Patent Law/Gardner Springs & Booker T. Washington Hs", "locality": "Tulsa", "rookie_year": 2003, "region": "Oklahoma", "team_number": 1209, "location": "Tulsa, Oklahoma, USA", "key": "frc1209", "country_name": "USA", "motto": "Excellence is to do a common thing in an uncommon way.  Booker T. Washington", "nickname": "Robo Hornets"}, {"website": "http://www.vikingnet.net/phs/robotics", "name": "Parsons Area Community Foundation/Taylor Products & Parsons Sr High", "locality": "Parsons", "rookie_year": 2004, "region": "Kansas", "team_number": 1448, "location": "Parsons, Kansas, USA", "key": "frc1448", "country_name": "USA", "motto": null, "nickname": "Parsons Vikings"}, {"website": "http://www.roboducks.org", "name": "The Boeing Company/Tinker AFB/Herman & LaDonna Meinders/Utley & Associates/Lonnie & Brenda Conell/Corrina Conatser & Francis Tuttle Technology Center", "locality": "Oklahoma City", "rookie_year": 2005, "region": "Oklahoma", "team_number": 1561, "location": "Oklahoma City, Oklahoma, USA", "key": "frc1561", "country_name": "USA", "motto": "Learn, Build, Inspire", "nickname": "ROBODUCKS"}, {"website": "http://gatorbotics.org/", "name": "Palantir / Charles Schwab / Intuitive Surgical / Il Fornaio / IDEO / SolidWorks / Google / Qualcomm / Brin Wojcicki Foundation / Roboterra / OnShape & Castilleja School", "locality": "Palo Alto", "rookie_year": 2005, "region": "California", "team_number": 1700, "location": "Palo Alto, California, USA", "key": "frc1700", "country_name": "USA", "motto": "Women Learning, Women Leading", "nickname": "Gatorbotics"}, {"website": "http://www.team1742.com", "name": "Boeing /OU College of Engineering & Moore Norman Technology Center", "locality": "Norman", "rookie_year": 2006, "region": "Oklahoma", "team_number": 1742, "location": "Norman, Oklahoma, USA", "key": "frc1742", "country_name": "USA", "motto": "Design it, Build it, Break it, Fix it, Repeat Process", "nickname": "Shockwave"}, {"website": "http://www.thunderstormrobotics.org", "name": "Dr. Charles & Jeanne  Bacon / Team Tinker / Billy and Tona Huggins / Malone's CNC Machining, Inc. / Circuit Assembly & Design / Dr Charlotte Fore / 2016 FRC\u00ae Hardship Grant & Payne County Christian Home Educators", "locality": "Stillwater", "rookie_year": 2006, "region": "Oklahoma", "team_number": 1750, "location": "Stillwater, Oklahoma, USA", "key": "frc1750", "country_name": "USA", "motto": "Building character while building Robots.", "nickname": "ThunderStorm Robotics"}, {"website": "http://www.smithvillehighrobotics.com/", "name": "LABCONCO / Chuck and Joan Hitchborn / Darrell Smith / Community America Credit Union / Citizens Bank & Trust / WESCO Distribution & Smithville High", "locality": "Smithville", "rookie_year": 2006, "region": "Missouri", "team_number": 1806, "location": "Smithville, Missouri, USA", "key": "frc1806", "country_name": "USA", "motto": "Use it up, Wear it out, Make it do or do without.", "nickname": "S.W.A.T."}, {"website": "http://www.firstinspires.org/", "name": "Tulsa Technology Center", "locality": "Tulsa", "rookie_year": 2007, "region": "Oklahoma", "team_number": 2004, "location": "Tulsa, Oklahoma, USA", "key": "frc2004", "country_name": "USA", "motto": "No killing", "nickname": "Thunderducks"}, {"website": "http://www.team2165.weebly.com", "name": "Phillips 66 / Conoco Phillips / AEP / Bartlesville Rotary Club & Tri County Technology Center", "locality": "Bartlesville", "rookie_year": 2007, "region": "Oklahoma", "team_number": 2165, "location": "Bartlesville, Oklahoma, USA", "key": "frc2165", "country_name": "USA", "motto": "Today's Competitors, Tomorrow's Champions", "nickname": "Trailblazers"}, {"website": "http://sapulpachieftainrobotics.webs.com/", "name": "Bartlett Foundation/Mr. Patrick Graham & Sapulpa Hs", "locality": "Sapulpa", "rookie_year": 2008, "region": "Oklahoma", "team_number": 2333, "location": "Sapulpa, Oklahoma, USA", "key": "frc2333", "country_name": "USA", "motto": null, "nickname": "S.C.R.E.E.C.H."}, {"website": "http://sprocketsfirstteam2341.weebly.com/", "name": "The Boeing Company/Eaton Corporation/Tinker OC-ALC/Enviro Systems Inc./HAAS Foundation/United Dynamics, Inc./NDEP/Singletrack Integration/Coca-Cola/Mills Machining, Inc. & Gordon Cooper Technology Center", "locality": "Shawnee", "rookie_year": 2008, "region": "Oklahoma", "team_number": 2341, "location": "Shawnee, Oklahoma, USA", "key": "frc2341", "country_name": "USA", "motto": "M.A.D. (Making a Difference)", "nickname": "Sprockets"}, {"website": "http://www.metalmayhem2352.com", "name": "the Chickasaw Nation Science, Technology and Math Academy", "locality": "Ada", "rookie_year": 2008, "region": "Oklahoma", "team_number": 2352, "location": "Ada, Oklahoma, USA", "key": "frc2352", "country_name": "USA", "motto": "Mind Over Metal: Focus Determines Reality", "nickname": "Metal Mayhem"}, {"website": "http://www.firstinspires.org/", "name": "Halliburton & Red river Technology Center", "locality": "Duncan", "rookie_year": 2008, "region": "Oklahoma", "team_number": 2354, "location": "Duncan, Oklahoma, USA", "key": "frc2354", "country_name": "USA", "motto": "Channeling Creativity", "nickname": "Red River Robotics"}, {"website": "http://www.firstinspires.org/", "name": "Boeing/National Defense Education Program/Kimray/Jasco Products/Oklahoma Christian University & Santa Fe Hs", "locality": "Edmond", "rookie_year": 2008, "region": "Oklahoma", "team_number": 2359, "location": "Edmond, Oklahoma, USA", "key": "frc2359", "country_name": "USA", "motto": null, "nickname": "RoboLobos"}, {"website": "http://www.firstinspires.org/", "name": "National Defense Education Program/Murray Services/Team Tinker/Carnegie Lumber & Caddo Kiowa Technology Center", "locality": "Fort Cobb", "rookie_year": 2008, "region": "Oklahoma", "team_number": 2373, "location": "Fort Cobb, Oklahoma, USA", "key": "frc2373", "country_name": "USA", "motto": null, "nickname": "The Crickets"}, {"website": "http://www.firstinspires.org/", "name": "NASA/Oklahoma state department of education/Tinker AFB/Mueller Construction Company & Colbert Ms", "locality": "Colbert", "rookie_year": 2008, "region": "Oklahoma", "team_number": 2382, "location": "Colbert, Oklahoma, USA", "key": "frc2382", "country_name": "USA", "motto": "Talk nerdy To me", "nickname": "Colbert RoboLeopards"}, {"website": "http://www.firstinspires.org/", "name": "AEP-PSO/Oklahoma State Department of Education/DaVco Mechanical/Dale and Lee's Service/Herrington Foundation/Samson Resources/Kirk Foster/Green Country ShirtnSign/Exchange Bank/National Defense Education Program & Sperry Hs", "locality": "Sperry", "rookie_year": 2008, "region": "Oklahoma", "team_number": 2388, "location": "Sperry, Oklahoma, USA", "key": "frc2388", "country_name": "USA", "motto": "We arrrrrrr Team 2388, home of Pirate Robotics! We do it without spilling blood!", "nickname": "Pirate Robotics"}, {"website": "http://www.okcrobot.com", "name": "The Boeing Company/National Defense Education Program/Team Tinker/AAR Aircraft Services/OG&E/Spartan College/CNI Aviation LLC/MIDCON Data Services, LLC/Metro Tech Aviation Career Campus & Oklahoma County 4-H", "locality": "Oklahoma City", "rookie_year": 2008, "region": "Oklahoma", "team_number": 2395, "location": "Oklahoma City, Oklahoma, USA", "key": "frc2395", "country_name": "USA", "motto": "It can happen, with God's help.", "nickname": "OKC 4-H Robotics - Ninja Monkees"}, {"website": "http://www.firstinspires.org/", "name": "The Boeing Company/Cherokee Nation & Sequoyah High School", "locality": "Tahlequah", "rookie_year": 2008, "region": "Oklahoma", "team_number": 2398, "location": "Tahlequah, Oklahoma, USA", "key": "frc2398", "country_name": "USA", "motto": "Leading Native Americans into the future through technology", "nickname": "Tech Walkers"}, {"website": "http://bixbyrobotics.org/index.php?module=Page&page=webaward10", "name": "Tinker Air Force Base/AEP   PSO/Oklahoma State Department of Education/Bixby Public Schools & Bixby Hs & Bixby Hs", "locality": "Bixby", "rookie_year": 2008, "region": "Oklahoma", "team_number": 2424, "location": "Bixby, Oklahoma, USA", "key": "frc2424", "country_name": "USA", "motto": "The team you don't want to meet in a dark alley.", "nickname": "Robot Mafia"}, {"website": "http://metalskinschhs.weebly.com/", "name": "Dell, Inc / Tinker AFB & Capitol Hill Hs", "locality": "OKC", "rookie_year": 2008, "region": "Oklahoma", "team_number": 2461, "location": "OKC, Oklahoma, USA", "key": "frc2461", "country_name": "USA", "motto": "If we build it, we can improve it!", "nickname": "METAL-SKINS"}, {"website": "http://team2765.org", "name": "The Boeing Company/National Defense Education Program & Cleveland County 4-H ", "locality": "Norman", "rookie_year": 2009, "region": "Oklahoma", "team_number": 2765, "location": "Norman, Oklahoma, USA", "key": "frc2765", "country_name": "USA", "motto": "To Make the Best Better", "nickname": "Radioactive Robotics"}, {"website": "www.irondogz.org", "name": "Pratt and Whitney /Edmond Electric/Team Tinker - NDEP National Defense Education Program/Hadley Design & Memorial Hs", "locality": "Edmond", "rookie_year": 2009, "region": "Oklahoma", "team_number": 2773, "location": "Edmond, Oklahoma, USA", "key": "frc2773", "country_name": "USA", "motto": null, "nickname": "IRONDOGZ"}, {"website": "http://www.firstinspires.org/", "name": "NASA/TAMA Tulsa Area Manufacturers Association & Tulsa Technology Center", "locality": "Broken Arrow", "rookie_year": 2009, "region": "Oklahoma", "team_number": 2795, "location": "Broken Arrow, Oklahoma, USA", "key": "frc2795", "country_name": "USA", "motto": "Get our Technical Training and Go Change the World", "nickname": "Ohm's Claw"}, {"website": "www.astecrobotics.org", "name": "Oklahoma State Department of Education/NASA/Mr. and Mrs. Allen Pease/ITT Technical Institute/Advanced Science and Technology Education Center, Inc. & Astec Charter Hs & Astec Charter Hs", "locality": "Oklahoma City", "rookie_year": 2009, "region": "Oklahoma", "team_number": 2986, "location": "Oklahoma City, Oklahoma, USA", "key": "frc2986", "country_name": "USA", "motto": "A better future through knowledge ", "nickname": "ASTEC Explorers"}, {"website": "http://thethirtyfirst.weebly.com/", "name": "Williams / OSDE / AEP / Boeing / National Defense Education Program & Jenks Hs", "locality": "Jenks", "rookie_year": 1997, "region": "Oklahoma", "team_number": 31, "location": "Jenks, Oklahoma, USA", "key": "frc31", "country_name": "USA", "motto": null, "nickname": "Prime Movers"}, {"website": "ktcmonsters.com", "name": "AEP/Team Tinker /International Paper Corp & Kiamichi Technology Center-Idabel", "locality": "Idabel", "rookie_year": 2010, "region": "Oklahoma", "team_number": 3152, "location": "Idabel, Oklahoma, USA", "key": "frc3152", "country_name": "USA", "motto": null, "nickname": "KTC-Monsters"}, {"website": "http://www.frog3160.org", "name": "Malone's CNC Machining, Inc./Grand Lake Area Robotics Education/Neighborhood Group/G & M Corkle Charitable Foundation/Grove Rotary Club/Bank of Oklahoma/National Defense Education Program/3M - Ceradyne & Grove Hs", "locality": "Grove", "rookie_year": 2010, "region": "Oklahoma", "team_number": 3160, "location": "Grove, Oklahoma, USA", "key": "frc3160", "country_name": "USA", "motto": "\"Figure It Out\"", "nickname": "FROG:  FIRST Robotics Organization of Grove"}, {"website": "http://www.wpstigers.k12.ok.us/robotics/Entrance.html", "name": "Tinker AirForce Base/2014 FRC Hardship Grant/Public Service of Oklahoma/Oklahoma State University-Institute of Technology & Wilson Hs", "locality": "Henryetta", "rookie_year": 2010, "region": "Oklahoma", "team_number": 3163, "location": "Henryetta, Oklahoma, USA", "key": "frc3163", "country_name": "USA", "motto": "NA", "nickname": "ROARBOTS"}, {"website": "http://www.firstinspires.org/", "name": "National Defense Education Program/Oklahoma State Dept of Education/RAE Corporation/Ameriflex/AEP/Adair Masonic Lodge/The Grange/Trece Corporation & Adair Hs", "locality": "Adair", "rookie_year": 2010, "region": "Oklahoma", "team_number": 3179, "location": "Adair, Oklahoma, USA", "key": "frc3179", "country_name": "USA", "motto": "Alone, we are weak. Together we are strong. We are the A.N.T.", "nickname": "The A.N.T."}, {"website": "http://www.firstinspires.org/", "name": "Georg Fischer-Central Plastics, LLC / Boeing-Restricted / Harrison Discount Pharmacy / National Defense Education Program / OKST DOE & Shawnee Hs", "locality": "Shawnee", "rookie_year": 2010, "region": "Oklahoma", "team_number": 3247, "location": "Shawnee, Oklahoma, USA", "key": "frc3247", "country_name": "USA", "motto": "Run with the Pack", "nickname": "Robopack"}, {"website": "http://www.firstinspires.org/", "name": "Lawton Public Schools/Oklahoma State Department of Education/National Defense Education Program /American Electric Power/Society of Women Engineers (SWE) & Macarthur Hs", "locality": "Lawton", "rookie_year": 2011, "region": "Oklahoma", "team_number": 3457, "location": "Lawton, Oklahoma, USA", "key": "frc3457", "country_name": "USA", "motto": "If you can't do something smart, do something right. ", "nickname": "MacBotics"}, {"website": "https://sites.google.com/site/firstteam3465/", "name": "Xerox/Tinker Air Force Base/Oklahoma State Department of Education/NDEP & Mustang Hs", "locality": "Mustang", "rookie_year": 2011, "region": "Oklahoma", "team_number": 3465, "location": "Mustang, Oklahoma, USA", "key": "frc3465", "country_name": "USA", "motto": "Create A Better Tomorrow", "nickname": "Omega Factor"}, {"website": "http://www.firstinspires.org/", "name": "Deer Creek Schools Foundation/National Defense Education Program/Oklahoma State Department of Education/Tetra Tech/Oasis Pools & Spas/First Commercial Bank/Flourish Pharmacy and Nutrition & Deer Creek Hs", "locality": "Edmond", "rookie_year": 2011, "region": "Oklahoma", "team_number": 3498, "location": "Edmond, Oklahoma, USA", "key": "frc3498", "country_name": "USA", "motto": "Failure is not  an option", "nickname": "Jankopotamus"}, {"website": "ubotics.org", "name": "Williams Companies/Team Tinker-NDEP/Engineers' Society of Tulsa, Inc./John Zink Hamworthy Combustion/Bennett Steel Inc/Oklahoma State Dept of Education & Union Hs", "locality": "Tulsa", "rookie_year": 2011, "region": "Oklahoma", "team_number": 3507, "location": "Tulsa, Oklahoma, USA", "key": "frc3507", "country_name": "USA", "motto": "Union Ubotics", "nickname": "Ubotics"}, {"website": "http://www.invictus3593.com", "name": "American Welding Society / artesian cancer centers / Boeing / Oral Roberts University / Tedford Insurance & Victory Christian School", "locality": "Tulsa", "rookie_year": 2011, "region": "Oklahoma", "team_number": 3593, "location": "Tulsa, Oklahoma, USA", "key": "frc3593", "country_name": "USA", "motto": null, "nickname": "INVICTUS"}, {"website": "http://sites.google.com/site/liaorobotics/", "name": "Northrop Grumman/NDEP/Teaching Textbooks/Argosy Foundation/Newman's Own & Home School", "locality": "Oklahoma City", "rookie_year": 2011, "region": "Oklahoma", "team_number": 3660, "location": "Oklahoma City, Oklahoma, USA", "key": "frc3660", "country_name": "USA", "motto": "We have not failed, we now know 10,000 things not to do. ", "nickname": "Lightsabers"}, {"website": "cockadoodledominators.com", "name": "Continental Resources/HSI Sensing/Boeing/Chickasha Community Foundation/Ross Health Care/Tinker Air Force Base/Rick Johnston State Farm/LaForge Properties/Ultrathin/American Electric Power/Standley Systems/First National Bank/Oklahoma Department of Education & Chickasha Hs", "locality": "Chickasha", "rookie_year": 2012, "region": "Oklahoma", "team_number": 3931, "location": "Chickasha, Oklahoma, USA", "key": "frc3931", "country_name": "USA", "motto": "Hatching Dreams FIRST", "nickname": "Cockadoodle Dominators"}, {"website": "http://www.firstinspires.org/", "name": "Hostile Gato Robotics/Fort Gibson Education Foundation/Oklahoma State Department of Education/Farm Bureau Insurance-Scott Abbott/C4 Industrial/BP & Fort Gibson Hs", "locality": "Fort Gibson", "rookie_year": 2012, "region": "OK", "team_number": 4005, "location": "Fort Gibson, OK, USA", "key": "frc4005", "country_name": "USA", "motto": null, "nickname": "Hostile Gato Robotics"}, {"website": "http://www.firstinspires.org/", "name": "Caprock H S", "locality": "Amarillo", "rookie_year": 2012, "region": "Texas", "team_number": 4298, "location": "Amarillo, Texas, USA", "key": "frc4298", "country_name": "USA", "motto": null, "nickname": "C-RockBotics"}, {"website": "http://cerbotics.mx/main/", "name": "PE\u00d1OLES & COLEGIO CERVANTES DE TORREON", "locality": "TORREON", "rookie_year": 2012, "region": "Coahuila", "team_number": 4400, "location": "TORREON, Coahuila, Mexico", "key": "frc4400", "country_name": "Mexico", "motto": "Imagine & Build", "nickname": "CERBOTICS"}, {"website": "http://www.roult.com", "name": "MET MEX PE\u00d1OLES, S.A. DE C.V. & Tec de Monterrey Campus Laguna", "locality": "Torreon", "rookie_year": 2012, "region": "COA", "team_number": 4403, "location": "Torreon, COA, Mexico", "key": "frc4403", "country_name": "Mexico", "motto": null, "nickname": "ROULT"}, {"website": "http://www.firstinspires.org/", "name": "Bryant Motors/Ditzfeld Transfer/Gardner-Denver/Ideal Tool and Manufacturing/JAM Marketing/Maxion Wheels/McCarthy Toyota/W&M Welding/Waterloo Industries, Inc./Duke Manufacturing/Specialty Sportswear & Smith-Cotton High School", "locality": "Sedalia", "rookie_year": 2013, "region": "Missouri", "team_number": 4522, "location": "Sedalia, Missouri, USA", "key": "frc4522", "country_name": "USA", "motto": null, "nickname": "Team SCREAM"}, {"website": "http://www.firstinspires.org/", "name": "Google / MidAmerica Industrial Park / American Castings / National Defense Education Program / OSUIT & Pryor Hs & Chouteau-Mazie Hs & Locust Grove Hs & Salina Hs", "locality": "Pryor", "rookie_year": 2013, "region": "Oklahoma", "team_number": 4523, "location": "Pryor, Oklahoma, USA", "key": "frc4523", "country_name": "USA", "motto": null, "nickname": "Cyborg Tigers"}, {"website": "http://www.firstinspires.org/", "name": "Climate Craft & Dove Science Academy Es (Okc)", "locality": "oklahoma city", "rookie_year": 2013, "region": "Oklahoma", "team_number": 4612, "location": "oklahoma city, Oklahoma, USA", "key": "frc4612", "country_name": "USA", "motto": null, "nickname": "RoboRockets"}, {"website": "jhanun.wix.com/greenmachine4933", "name": "Tinker AFB/Liberty Partners & Green Country Technology Center", "locality": "Okmulgee", "rookie_year": 2014, "region": "Oklahoma", "team_number": 4933, "location": "Okmulgee, Oklahoma, USA", "key": "frc4933", "country_name": "USA", "motto": "Go Green", "nickname": "Code Green"}, {"website": "http://www.firstinspires.org/", "name": "Team Tinker/American Electric Power (AEP) & Dove Science Academy (Tulsa)", "locality": "Tulsa", "rookie_year": 2014, "region": "Oklahoma", "team_number": 5001, "location": "Tulsa, Oklahoma, USA", "key": "frc5001", "country_name": "USA", "motto": null, "nickname": "Fast and Serious"}, {"website": "www.northtownrobotics.com", "name": "ClayCo Electric Company / NKC Iron and Metal / KC STEM Alliance / MoKan Ironworkers / North Kansas City Education Foundation / Lowe's  / Family Dollar / North Kansas City Nuts & Bolts & North Kansas City High", "locality": "North Kansas City", "rookie_year": 2014, "region": "Missouri", "team_number": 5098, "location": "North Kansas City, Missouri, USA", "key": "frc5098", "country_name": "USA", "motto": "If you're not FIRST, You're Last", "nickname": "STING - R"}, {"website": "http://www.firstinspires.org/", "name": "Yukon Hs", "locality": "Yukon", "rookie_year": 2015, "region": "Oklahoma", "team_number": 5548, "location": "Yukon, Oklahoma, USA", "key": "frc5548", "country_name": "USA", "motto": null, "nickname": "Psi Factor"}, {"website": "http://www.firstinspires.org/", "name": "Bethany Hs", "locality": "Bethany", "rookie_year": 2015, "region": "Oklahoma", "team_number": 5550, "location": "Bethany, Oklahoma, USA", "key": "frc5550", "country_name": "USA", "motto": null, "nickname": "Broncho Bots"}, {"website": "http://www.firstinspires.org/", "name": "Metro Technology Centers STEM Academy ", "locality": "Oklahoma City", "rookie_year": 2015, "region": "Oklahoma", "team_number": 5578, "location": "Oklahoma City, Oklahoma, USA", "key": "frc5578", "country_name": "USA", "motto": null, "nickname": "Metro Mechanical Monsters"}, {"website": "http://www.firstinspires.org/", "name": "Verden Hs", "locality": "Verden", "rookie_year": 2015, "region": "Oklahoma", "team_number": 5611, "location": "Verden, Oklahoma, USA", "key": "frc5611", "country_name": "USA", "motto": null, "nickname": "Neon Tigers"}, {"website": "http://www.firstinspires.org/", "name": "North Hs", "locality": "Edmond", "rookie_year": 2015, "region": "Oklahoma", "team_number": 5621, "location": "Edmond, Oklahoma, USA", "key": "frc5621", "country_name": "USA", "motto": null, "nickname": "Cyberian Huskies"}, {"website": "http://www.firstinspires.org/", "name": "Cascia Hall Preparatory School", "locality": "Tulsa", "rookie_year": 2016, "region": "Oklahoma", "team_number": 5889, "location": "Tulsa, Oklahoma, USA", "key": "frc5889", "country_name": "USA", "motto": null, "nickname": "Commandobots"}, {"website": "http://www.firstinspires.org/", "name": "Phillips 66/NASA/Texas Workforce Commission/Schlumberger/Argosy Foundation/Hasty-Bake, Inc/SolidWorks & Energy Institute High School", "locality": "Houston", "rookie_year": 2016, "region": "Texas", "team_number": 5892, "location": "Houston, Texas, USA", "key": "frc5892", "country_name": "USA", "motto": null, "nickname": "High Energy"}, {"website": "http://www.firstinspires.org/", "name": "Newcastle Hs", "locality": "Newcastle", "rookie_year": 2016, "region": "Oklahoma", "team_number": 5930, "location": "Newcastle, Oklahoma, USA", "key": "frc5930", "country_name": "USA", "motto": null, "nickname": "Lunar Kitties"}, {"website": "http://www.firstinspires.org/", "name": "Salina Hs", "locality": "Salina", "rookie_year": 2016, "region": "Oklahoma", "team_number": 5984, "location": "Salina, Oklahoma, USA", "key": "frc5984", "country_name": "USA", "motto": null, "nickname": "Salina Robotics"}, {"website": "http://team6026.com", "name": "Tactical Electronics & Broken Arrow Hs", "locality": "Broken Arrow", "rookie_year": 2016, "region": "Oklahoma", "team_number": 6026, "location": "Broken Arrow, Oklahoma, USA", "key": "frc6026", "country_name": "USA", "motto": null, "nickname": "Tiger Strike"}, {"website": "Facebook: T.E.A.M.932", "name": "American Electric Power/Express Integrated Technologies/Willbros/TD Williamson/Allied Fence Company/Baker Hughes/Knape Associates/Kimberly-Clark/Allen & Associates/Matrix Service Company/Tulsa Engineering Foundation/Instrument Society of America/ITT Technical Institute/Memorial Robotics Booster Club & Memorial Hs", "locality": "Tulsa", "rookie_year": 2002, "region": "Oklahoma", "team_number": 932, "location": "Tulsa, Oklahoma, USA", "key": "frc932", "country_name": "USA", "motto": "Inspiring Today, Engineering Tomorrow", "nickname": "Circuit Chargers"}, {"website": "http://team935.com", "name": "The Boeing Company/Higgs Tech Consulting/SRES/SME/James Allen & Newton Sr High", "locality": "Newton", "rookie_year": 2002, "region": "Kansas", "team_number": 935, "location": "Newton, Kansas, USA", "key": "frc935", "country_name": "USA", "motto": "Inspiration of today technology of tommorow", "nickname": "RaileRobotics"}]