[{"website": "http://www.team100.org", "name": "Sequoia Union High School District / Woodside High School Foundation / Tate Family / Pentair / Lawrence Searcy / Barnes & Associates Insurance / Woodcraft / Solutions2Projects, LLC / Intuitive Surgical / SRI International / Recology San Mateo County / Brin Wojcicki Foundation / John & Jane Shroyer / SolidWorks / Alan Steel and Supply Company & Woodside High", "locality": "Woodside", "rookie_year": 1998, "region": "California", "team_number": 100, "location": "Woodside, California, USA", "key": "frc100", "country_name": "USA", "motto": "\"Student Run, Student Built\"", "nickname": "The WildHats"}, {"website": "http://lahsrobotics.org/portal", "name": "Google / Intuitive Surgical / Applied Welding Technology / Advanced Component Technology / Glbert Spray Coat & LOS ALTOS HIGH", "locality": "Los Altos", "rookie_year": 1997, "region": "California", "team_number": 114, "location": "Los Altos, California, USA", "key": "frc114", "country_name": "USA", "motto": null, "nickname": "Eagle Strike"}, {"website": "http://www.mvrt.com", "name": "Google/Lockheed Martin/IBM/Platt Electric Supply/Brin-Wojcicki Foundation/Qualcomm/Western Digital/BAE Systems/De Anza College Machine Shop/Pinnacle Manufacturing/Intel/VMware/Teco Pneumatic/Fremont Union High School Foundation/Symantec Corporation/Intuitive Surgical/EMC2 & Monta Vista High", "locality": "Cupertino", "rookie_year": 1998, "region": "California", "team_number": 115, "location": "Cupertino, California, USA", "key": "frc115", "country_name": "USA", "motto": null, "nickname": "MVRT"}, {"website": "http://www.srvhsrobotics.org", "name": "EMC Corporation/Intuitive Surgical/Robin Fall/San Ramon Valley High School PTSA/San Ramon Valley Education Foundation & San Ramon Valley High", "locality": "Danville", "rookie_year": 2004, "region": "California", "team_number": 1280, "location": "Danville, California, USA", "key": "frc1280", "country_name": "USA", "motto": null, "nickname": "Ragin' C- Biscuits of San Ramon Valley High"}, {"website": "http://www.amhsrobotics.com/", "name": "Valin Corporation/Intuitive Surgical, Inc./BAE Systems/ProxyIT, Inc./HSC Electronic Supply/Drake Welding, Inc./LUX Manufacturing Inc./Mike Schmit/EMC Corporation & ARCHBISHOP MITTY HIGH SCHOOL", "locality": "San Jose", "rookie_year": 2004, "region": "California", "team_number": 1351, "location": "San Jose, California, USA", "key": "frc1351", "country_name": "USA", "motto": "Tenacity, Knowledge, Opportunity", "nickname": "TKO"}, {"website": "www.rfe1662.org", "name": "Jim Elliot Christian High School", "locality": "Lodi", "rookie_year": 2005, "region": "California", "team_number": 1662, "location": "Lodi, California, USA", "key": "frc1662", "country_name": "USA", "motto": "Using  A Robot To Change Lives", "nickname": "Raptor Force Engineering"}, {"website": "http://www.citruscircuits.org/", "name": "UCD Chancellor's Office/UCD College of Engineering/UCD College of Mathematical and Physical Science/UCD Department of Social Sciences/UCD School of Biological Sciences/UCD College of Agriculture and Environmental Science/Martin's Metal Fabrication/Aerometals/Blue and White Foundation/UCD School of Medicine/UCD Vet School/UCD School of Education/UCD School of Nursing/Da Vinci HS Booster Club/AAUW/Rotary Club of Davis & Davis Senior High", "locality": "Davis", "rookie_year": 2005, "region": "California", "team_number": 1678, "location": "Davis, California, USA", "key": "frc1678", "country_name": "USA", "motto": "If life gives you lemons, build a robot", "nickname": "Citrus Circuits"}, {"website": "http://gatorbotics.org/", "name": "Palantir / Charles Schwab / Intuitive Surgical / Il Fornaio / IDEO / SolidWorks / Google / Qualcomm / Brin Wojcicki Foundation / Roboterra / OnShape & Castilleja School", "locality": "Palo Alto", "rookie_year": 2005, "region": "California", "team_number": 1700, "location": "Palo Alto, California, USA", "key": "frc1700", "country_name": "USA", "motto": "Women Learning, Women Leading", "nickname": "Gatorbotics"}, {"website": "http://www.frc.spacecookies.org", "name": "NASA Ames Research Center/Microsoft/St. Jude Medical Foundation/Nvidia/Brin Worcicki Foundation/Motorola/Qualcomm/Intuitive Surgical/World Metal Finishing/Applied Welding/Weiss Enterprises/Solidworks/Wildbit/Tool Technologies & Girl Scout Troop 62868", "locality": "Moffett Field", "rookie_year": 2006, "region": "California", "team_number": 1868, "location": "Moffett Field, California, USA", "key": "frc1868", "country_name": "USA", "motto": "Girls Engineer Their Tomorrows", "nickname": "Space Cookies"}, {"website": "http://www.gunnrobotics.com", "name": "Robert Bosch LLC/SRI/Madco Welding Supply/Vander-Bend/GRT parents & alumni/Palo Alto Unified School District & Henry M Gunn HS", "locality": "Palo Alto", "rookie_year": 1997, "region": "California", "team_number": 192, "location": "Palo Alto, California, USA", "key": "frc192", "country_name": "USA", "motto": "Make something simple that works", "nickname": "GRT"}, {"website": "http://team1967.ndsj.org/", "name": "NVIDIA / Qualcomm / Brin Wojcicki Foundation / BAE Systems / TechShop / Intuitive Surgical / SolidWorks & Notre Dame High School", "locality": "San Jose", "rookie_year": 2006, "region": "California", "team_number": 1967, "location": "San Jose, California, USA", "key": "frc1967", "country_name": "USA", "motto": "It may not be perfect, But that's where the magic begins", "nickname": "The Janksters"}, {"website": "http://www.firstinspires.org/", "name": "Carlmont High", "locality": "Belmont", "rookie_year": 1998, "region": "California", "team_number": 199, "location": "Belmont, California, USA", "key": "frc199", "country_name": "USA", "motto": null, "nickname": "Deep Blue"}, {"website": "http://www.firstinspires.org/", "name": "Carmel Unified School District/Naval Post Graduate School/National Defense Education Program/Monterey Bay Aquarium Research Institute/FOCUS/Padre Parents/El Camino Machine and Welding/SJ Automation/Carmel Valley Video & Carmel High", "locality": "Carmel", "rookie_year": 2007, "region": "California", "team_number": 2035, "location": "Carmel, California, USA", "key": "frc2035", "country_name": "USA", "motto": "Taking it to eleven since 2007", "nickname": "Robo Rockin' Bots"}, {"website": "http://www.presentationhs.org/robotics", "name": "Enseo, Inc. / Qualcomm / nVIDIA / Xilinx, Inc / Dassault  Systemes / Exatron / Nguyen Family / Mullins Family & Presentation High School", "locality": "San Jose", "rookie_year": 2007, "region": "California", "team_number": 2135, "location": "San Jose, California, USA", "key": "frc2135", "country_name": "USA", "motto": null, "nickname": "Presentation Invasion"}, {"website": "http://www.sfhsrobotics.com/", "name": "Stellar Solutions Foundation & St Francis High School", "locality": "Mountain View", "rookie_year": 2008, "region": "California", "team_number": 2367, "location": "Mountain View, California, USA", "key": "frc2367", "country_name": "USA", "motto": null, "nickname": "Lancer Robotics"}, {"website": "http://www.tinorobotics.org", "name": "Lockheed Martin/Jacobs Technology/Intuitive Surgical/Aerospace Mechanisms Symposia/FUHSD Foundation/Qualcomm/Mentor Graphics/Nvidia & Cupertino High", "locality": "Cupertino", "rookie_year": 2008, "region": "California", "team_number": 2473, "location": "Cupertino, California, USA", "key": "frc2473", "country_name": "USA", "motto": "building people building robots", "nickname": "Goldstrikers"}, {"website": "http://www.team2489.org", "name": "Boeing/Playing At Learning/F5 Networks & Fremont Unified School District", "locality": "Fremont", "rookie_year": 2008, "region": "California", "team_number": 2489, "location": "Fremont, California, USA", "key": "frc2489", "country_name": "USA", "motto": "Do the math, save the world.", "nickname": "The Insomniacs"}, {"website": "http://millsrobotics.com", "name": "SMUHSD & Mills High", "locality": "Millbrae", "rookie_year": 1999, "region": "California", "team_number": 253, "location": "Millbrae, California, USA", "key": "frc253", "country_name": "USA", "motto": "Don't worry about it.", "nickname": "Mills Robotics Team"}, {"website": "http://www.team254.com", "name": "NASA Ames Research Center/Google/Ooyala/The Mercadante Family/Brin Wojcicki Foundation/BAE Systems/The Kasle Family/Qualcomm/Intuitive Surgical/Vivid-Hosting/West Coast Products/Mentor Graphics/The Jimenez Family/The Magarelli Family/The Kumar Family/Gilbert Spray Coat/Pacific Coast Metal/Applied Welding/Cisco/Four-D Metal Finishing & Bellarmine College Preparatory", "locality": "San Jose", "rookie_year": 1999, "region": "California", "team_number": 254, "location": "San Jose, California, USA", "key": "frc254", "country_name": "USA", "motto": null, "nickname": "The Cheesy Poofs"}, {"website": "http://www.firstinspires.org/", "name": "Brin Wojcicki Foundation / The Olander Company / KLA-Tencor / Apple / Qualcomm & Willow Glen High", "locality": "San Jose", "rookie_year": 1999, "region": "California", "team_number": 256, "location": "San Jose, California, USA", "key": "frc256", "country_name": "USA", "motto": null, "nickname": "Robo-Rams"}, {"website": "http://team2643.com", "name": "Lockheed Martin/Boston Scientfic/Philanthropic Ventures Foundation/Silicon Valley Education Foundation/EUSHSD Foundation/STHS Parent Organization/Intuitive Surgical, Inc./Encore Machining/Solid Works/SIMS Metal Management/OSH & Santa Teresa High", "locality": "San Jose", "rookie_year": 2008, "region": "California", "team_number": 2643, "location": "San Jose, California, USA", "key": "frc2643", "country_name": "USA", "motto": "To See, To Do, To Improve, To Teach", "nickname": "Dark Matter"}, {"website": "http://www.prospectgearheads.org/", "name": "Brocade Communications Systems/Brin and Wojcicki Foundation/BAE Systems/Walmart/Western Digital Corp/Intuitive Surgical/PTC/Symantec/OOCL, Inc./The Markus Family/Campbell Union High School District/De Anza College Manufacturing and CNC Technologies Department/Exatron, Inc. & Prospect High", "locality": "Saratoga", "rookie_year": 2009, "region": "California", "team_number": 2813, "location": "Saratoga, California, USA", "key": "frc2813", "country_name": "USA", "motto": "It's fun and I like engineering", "nickname": "Gear Heads"}, {"website": "http://evhsrobotics.com/", "name": "Evergreen Valley High", "locality": "San Jose", "rookie_year": 2009, "region": "California", "team_number": 2854, "location": "San Jose, California, USA", "key": "frc2854", "country_name": "USA", "motto": "It's Just A Prototype", "nickname": "The Prototypes"}, {"website": "http://www.vcrobotics.net/2015/home.html", "name": "MDR Precision/Daigle Family/Nvidia/Brin Wojcicki Foundation/BAE Systems/Intuitive Surgical/Nova Drilling/M&L Precision/4D Metal Finishing/Industrial Nature/Gorilla Metals/Wheel Works Los Gatos/Wasabi & Valley Christian High", "locality": "San Jose", "rookie_year": 2010, "region": "California", "team_number": 3256, "location": "San Jose, California, USA", "key": "frc3256", "country_name": "USA", "motto": "Quest for Excellence", "nickname": "WarriorBorgs"}, {"website": "www.Team3482.com", "name": "NASA/Brin Wojcicki Foundation/Qualcomm/Xilinx/Electronic Home Concepts/Corporate West Computers/Campbell Union High School District/Western DIgital/Festo/Walmart/BAE Systems/Office Depot/Intuitive Surgical/Orchard Supply Hardware/Drake Welding/Haig Precision Manufacturing & Westmont High", "locality": "Campbell", "rookie_year": 2011, "region": "California", "team_number": 3482, "location": "Campbell, California, USA", "key": "frc3482", "country_name": "USA", "motto": "E Pluribus Machina", "nickname": "Arrowbotics"}, {"website": "http://www.mckinleyrobotics.org/", "name": "Hawaii Moving Ahead/Ward Village Foundation/Hawaiian Electric Company/RHT Enterprise/Leidos/BAE Systems/Industrial Electronics/Min Plastics/National Defense Education Program (NDEP) /Many wonderful anonymous donors full of Aloha & President William Mckinley High School", "locality": "Honolulu", "rookie_year": 2000, "region": "Hawaii", "team_number": 368, "location": "Honolulu, Hawaii, USA", "key": "frc368", "country_name": "USA", "motto": "Kulia i ka nu'u (Strive for Excellence)", "nickname": "Team Kika Mana"}, {"website": "http://www.firstinspires.org/", "name": "Brin Wojcicki & Oakland Technical High", "locality": "Okland", "rookie_year": 2012, "region": "California", "team_number": 4047, "location": "Okland, California, USA", "key": "frc4047", "country_name": "USA", "motto": null, "nickname": "Cyber Dogz"}, {"website": "http://www.team4159.org", "name": "Lowell Alumni Association/Lowell PTSA/Bechtel Corporation/Solidworks/Brin-Wojcicki Foundation/Intuitive Surgical/Patxi's Pizza/Beronio Lumber & Lowell High", "locality": "San Francisco", "rookie_year": 2012, "region": "California", "team_number": 4159, "location": "San Francisco, California, USA", "key": "frc4159", "country_name": "USA", "motto": null, "nickname": "CardinalBotics"}, {"website": "team4171.com", "name": "Seaside Rotary/Google/Google Glass/Ekocycle/Qualcomm/Monterey Peninsula Unified School District & Seaside High", "locality": "Seaside", "rookie_year": 2012, "region": "California", "team_number": 4171, "location": "Seaside, California, USA", "key": "frc4171", "country_name": "USA", "motto": null, "nickname": "BayBots"}, {"website": "http://www.firstinspires.org/", "name": "FIRST HQ/Brin Wojcicki Foundation/Society of Women Engineers (SWE)/Intuitive Surgical/Newman's Own Foundation/Argosy Foundation/Alameda Education Foundation/Alameda Municipal Power/ASTI PTSA/Island Print Express/Encap Technologies & Will C. Wood Middle & Alameda Science and Technology Institute & Encinal High", "locality": "Alameda", "rookie_year": 2012, "region": "California", "team_number": 4186, "location": "Alameda, California, USA", "key": "frc4186", "country_name": "USA", "motto": null, "nickname": "Aztechs"}, {"website": "http://robodores-team4255.weebly.com", "name": "Monterey High School Motorsports /Monterey Bay Aquarium Research Institute/NDEP/Naval Postgraduate School/DeVry Education Group/Comcast/Google/Monterey Peninsula Unified & Monterey High", "locality": "Monterey", "rookie_year": 2012, "region": "California", "team_number": 4255, "location": "Monterey, California, USA", "key": "frc4255", "country_name": "USA", "motto": "Work hard, Keep it fun, go to St. Louis!", "nickname": "RoboDores"}, {"website": "www.thunderbirdrobotics.org", "name": "Butte County Office of Education ROP/RCBS (Outdoor Vista)/Roplast Industries, Inc./Mary Lake-Thompson, Ltd./Transfer Flow, Inc/All Metals Supply/RaboBank/Oro Dam Cruisers & Butte Co Rop & Las Plumas High & Chico High & Pleasant Valley High & Oroville High & Inspire Sch of Arts and Sciences", "locality": "Butte County", "rookie_year": 2013, "region": "California", "team_number": 4643, "location": "Butte County, California, USA", "key": "frc4643", "country_name": "USA", "motto": "To Inspire & Empower", "nickname": "Thunderbird Robotics"}, {"website": "http://www.firstinspires.org/", "name": "Pinewood School", "locality": "Los Altos Hills", "rookie_year": 2013, "region": "California", "team_number": 4765, "location": "Los Altos Hills, California, USA", "key": "frc4765", "country_name": "USA", "motto": "Where did the ____ go? It can't have gone far. ", "nickname": "PWR Up"}, {"website": "www.botprovoking.org", "name": "2014 FRC Rookie Grant/Qualcomm/Google/GrabCAD/Dassault Systems/Brin-Wojcicki Foundation/NVIDIA/Steve and Grace Voorhis & the Nueva School", "locality": "Hillsborough", "rookie_year": 2014, "region": "California", "team_number": 4904, "location": "Hillsborough, California, USA", "key": "frc4904", "country_name": "USA", "motto": null, "nickname": "Bot-Provoking"}, {"website": "gryphonrobotics.org", "name": "Crystal Springs Uplands School", "locality": "Hillsborough", "rookie_year": 2014, "region": "California", "team_number": 4990, "location": "Hillsborough, California, USA", "key": "frc4990", "country_name": "USA", "motto": null, "nickname": "Gryphon Robotics"}, {"website": "burlingamerobotics.com", "name": "2014 FRC Rookie Grant/Brin Wojcicki Foundation/BAE/Intuitive Surgical/San Mateo Union High School Gate Parents Group/Iron Panther Families/GoPro & Burlingame High", "locality": "Burlingame", "rookie_year": 2014, "region": "California", "team_number": 5026, "location": "Burlingame, California, USA", "key": "frc5026", "country_name": "USA", "motto": "student-built, student-run", "nickname": "Iron Panthers"}, {"website": "http://www.firstinspires.org/", "name": "Boston Scientific/Qualcomm/ Intuitive Surgical, Inc/Brin Wojcicki Foundation/FIRST rookie grant & Andrew P. Hill High", "locality": "San Jose", "rookie_year": 2014, "region": "California", "team_number": 5027, "location": "San Jose, California, USA", "key": "frc5027", "country_name": "USA", "motto": null, "nickname": "Event Horizon"}, {"website": "http://www.firstinspires.org/", "name": "Roddenberry Foundation & Benjamin Franklin Senior High", "locality": "Los Angeles", "rookie_year": 2014, "region": "CA", "team_number": 5089, "location": "Los Angeles, CA, USA", "key": "frc5089", "country_name": "USA", "motto": null, "nickname": "Robo-Nerds"}, {"website": "http://www.firstinspires.org/", "name": "Pacific Grove USD/HireVue, Inc./Karen & Rick Hargrove/Brin Wojcicki Foundation & Pacific Grove High", "locality": "Pacific Grove", "rookie_year": 2014, "region": "California", "team_number": 5104, "location": "Pacific Grove, California, USA", "key": "frc5104", "country_name": "USA", "motto": null, "nickname": "BreakerBots"}, {"website": "http://www.firstinspires.org/", "name": "Brin Wojcicki Foundation/NASA/Naval Post Graduate School of Monterey  & York School", "locality": "Monterey", "rookie_year": 2014, "region": "California", "team_number": 5171, "location": "Monterey, California, USA", "key": "frc5171", "country_name": "USA", "motto": null, "nickname": "Deus Ex Machina"}, {"website": "bhsrobotics.org", "name": "Brin Wojcicki Foundation / Abbott Fund / SolidWorks / 3DRobotics / GHI Electronics / Felicia Horowitz / Koji Peterson & Berkeley High", "locality": "Berkeley", "rookie_year": 2015, "region": "California", "team_number": 5499, "location": "Berkeley, California, USA", "key": "frc5499", "country_name": "USA", "motto": "Lets do it tomorrow after school", "nickname": "Berkeley High Robotics"}, {"website": "www.keltechonline.com", "name": "Kabatas Erkek Lisesi", "locality": "Istanbul", "rookie_year": 2015, "region": "Istanbul", "team_number": 5655, "location": "Istanbul, Istanbul, Turkey", "key": "frc5655", "country_name": "Turkey", "motto": "We Made, It Worked", "nickname": "Cryptex"}, {"website": "http://thesubatomicsmarticles.weebly.com/", "name": "2015 FRC Rookie Grant / Texas Instruments / The Brin Wojcicki Foundation / Abbott Laboratories / The TechShop & Palo Alto Robotics Club", "locality": "San Jose", "rookie_year": 2015, "region": "California", "team_number": 5677, "location": "San Jose, California, USA", "key": "frc5677", "country_name": "USA", "motto": null, "nickname": "The Subatomic Smarticles"}, {"website": "http://www.firstinspires.org/", "name": "The Coca Cola Company/Friends of School of the Arts Foundation/3D Systems/Solidworks/Brin Wojkicki Foundation/First Robotics Competition & RUTH ASAWA SAN FRANCISCO SCH OF THE ARTS, A PUBLIC", "locality": "San Francisco", "rookie_year": 2015, "region": "California", "team_number": 5700, "location": "San Francisco, California, USA", "key": "frc5700", "country_name": "USA", "motto": null, "nickname": "SOTA Cyberdragons"}, {"website": "http://www.firstinspires.org/", "name": "Maria Carrillo High School / FRC / Space Cookies / Brin Wojcicki Foundation & MARIA CARRILLO HIGH", "locality": "Santa Rosa", "rookie_year": 2015, "region": "California", "team_number": 5728, "location": "Santa Rosa, California, USA", "key": "frc5728", "country_name": "USA", "motto": null, "nickname": "Carrillo Cybernetics"}, {"website": "http://www.firstinspires.org/", "name": "Mars Style Tech(Beijing)CO. LTD / Space Cookies  / 1898 cafe / zhongsou / BUPT & Neighborhood Group", "locality": "Beijing", "rookie_year": 2015, "region": "Beijing", "team_number": 5737, "location": "Beijing, Beijing, China", "key": "frc5737", "country_name": "China", "motto": "Bring you to Mars!", "nickname": "Mars Style"}, {"website": "http://www.team581.com", "name": "Synnex/BAE Systems/The Brin Wojcicki Foundation/Comcast/Platt Electric/Intuitive Surgical/HP/Bulldog Boosters & San Jos High", "locality": "San Jose", "rookie_year": 2001, "region": "California", "team_number": 581, "location": "San Jose, California, USA", "key": "frc581", "country_name": "USA", "motto": "Always have a plan B.", "nickname": "Blazing Bulldogs"}, {"website": "http://www.firstinspires.org/", "name": "Family Friends", "locality": "Beijing", "rookie_year": 2016, "region": "Beijing", "team_number": 5904, "location": "Beijing, Beijing, China", "key": "frc5904", "country_name": "China", "motto": null, "nickname": "Iron 101"}, {"website": "http://www.firstinspires.org/", "name": "IvyMax Foundation & BASIS Independent Silicon Valley", "locality": "San Jose", "rookie_year": 2016, "region": "California", "team_number": 5905, "location": "San Jose, California, USA", "key": "frc5905", "country_name": "USA", "motto": null, "nickname": "RoboCorps"}, {"website": "Don't have one yet.", "name": "St Ignatius College Preparatory", "locality": "San Francisco", "rookie_year": 2016, "region": "California", "team_number": 5924, "location": "San Francisco, California, USA", "key": "frc5924", "country_name": "USA", "motto": "Not sure yet", "nickname": "SI Robotics"}, {"website": "http://www.firstinspires.org/", "name": "Design Tech High School", "locality": "Burlingame", "rookie_year": 2016, "region": "California", "team_number": 5940, "location": "Burlingame, California, USA", "key": "frc5940", "country_name": "USA", "motto": null, "nickname": "B.R.E.A.D."}, {"website": "http://www.firstinspires.org/", "name": "The Brin Wojcicki Foundation & Palo Alto Youth Robotics Association", "locality": "Palo Alto", "rookie_year": 2016, "region": "California", "team_number": 6036, "location": "Palo Alto, California, USA", "key": "frc6036", "country_name": "USA", "motto": null, "nickname": "Terrace Tech"}, {"website": "http://www.firstinspires.org/", "name": "Stevenson School - Pebble Beach Campus", "locality": "Pebble Beach", "rookie_year": 2016, "region": "California", "team_number": 6039, "location": "Pebble Beach, California, USA", "key": "frc6039", "country_name": "USA", "motto": null, "nickname": "Stevenson Robotics"}, {"website": "http://604robotics.com", "name": "Brin Wojcicki Foundation / Best Buy / IBM / Qualcomm / Google / Cisco / Intuitive Surgical / Sierra Radio Systems / Western Digital / SOLIDWORKS / HSC Electronic Supply / TE Conductivity / MDR Precision / Dell / eBay / Quality Machining and Design / Maple Leaf Properties / Lockheed Martin / BAE Systems & Leland High", "locality": "San Jose", "rookie_year": 2001, "region": "California", "team_number": 604, "location": "San Jose, California, USA", "key": "frc604", "country_name": "USA", "motto": "It will work - because it has to.", "nickname": "Quixilver"}, {"website": "http://www.firstinspires.org/", "name": "Neighborhood Group", "locality": "Livermore", "rookie_year": 2016, "region": "CA", "team_number": 6059, "location": "Livermore, CA, USA", "key": "frc6059", "country_name": "USA", "motto": null, "nickname": "System Overload Robotics"}, {"website": "http://saratogamset.org", "name": "Sandisk / Brian and Monica Berkeley / FESTO / Intuitive Surgical / M & L Precision Machining / Santa Clara Plating Co / Valin Corporation- Automation Controls / SolidWorks / GrabCAD / 3D Systems / Screened Images / SRI International & Saratoga High", "locality": "Saratoga", "rookie_year": 2001, "region": "California", "team_number": 649, "location": "Saratoga, California, USA", "key": "frc649", "country_name": "USA", "motto": "We practice \"Gracious Profishionalism\"!", "nickname": "M-SET Fish"}, {"website": "www.apesofwrath668.org", "name": "Gilbert-Greenstein Family /Gigoptix/Google/Qualcomm/Boston Scientific/Evans Analytical Group/Millaway Tools/ The McFadden Family/The Wilson Family & Pioneer High", "locality": "San Jose", "rookie_year": 2001, "region": "California", "team_number": 668, "location": "San Jose, California, USA", "key": "frc668", "country_name": "USA", "motto": "Inspired by Necessity, created by Genius, forged by Teamwork", "nickname": "The Apes of Wrath"}, {"website": "http://homesteadrobotics.com", "name": "FUHSD Foundation / NASA / SolidWorks & Homestead High", "locality": "Cupertino", "rookie_year": 2001, "region": "California", "team_number": 670, "location": "Cupertino, California, USA", "key": "frc670", "country_name": "USA", "motto": null, "nickname": "Homestead Robotics"}, {"website": "http://team751.org/", "name": "Pentair/Silver Lake Partners/Liquid Robotics/five9 Networks & Woodside Priory School", "locality": "Portola Valley", "rookie_year": 2002, "region": "California", "team_number": 751, "location": "Portola Valley, California, USA", "key": "frc751", "country_name": "USA", "motto": null, "nickname": "barn2robotics"}, {"website": "http://www.team766.com", "name": "Google / Sequoia Union High School District / Abbott Fund / Brin Wojcicki Foundation / Intuitive Surgical  / SRI International & Menlo-Atherton High", "locality": "Atherton", "rookie_year": 2002, "region": "California", "team_number": 766, "location": "Atherton, California, USA", "key": "frc766", "country_name": "USA", "motto": "From Concept to Reality", "nickname": "M-A Bears"}, {"website": "http://www.palyrobotics.com/", "name": "Google/Medallia/Intuitive Surgical /Lockheed Martin/Callan Associates/Solidworks/Dropbox & Palo Alto High", "locality": "Palo Alto", "rookie_year": 1996, "region": "California", "team_number": 8, "location": "Palo Alto, California, USA", "key": "frc8", "country_name": "USA", "motto": "Making Humans Obsolete Since 1996", "nickname": "Team 8"}, {"website": "http://www.team841.com", "name": "Chevron/BAE Systems/Intuitive Surgical/Brin Wojcicki Foundation/Applied Lasers LLC/SunPower/M. Welding Creations and Industrial Finishing & Richmond High", "locality": "Richmond", "rookie_year": 2002, "region": "California", "team_number": 841, "location": "Richmond, California, USA", "key": "frc841", "country_name": "USA", "motto": "Changing the world one robot at a time.", "nickname": "The BioMechs"}, {"website": "http://www.lynbrookrobotics.com/", "name": "FUHS Foundation/Qualcomm/Western Digital/Teradata Corp/The Brin Wojcicki Foundation/Symantec/ClickAway/Boston Scientific/PTC/Intuitive Surgical Inc/NASA/Makineni Family/Google/Chan Family/Tecniq/Vanderbend Manufacturing/Therma Corp./Exatron Inc & Lynbrook High", "locality": "San Jose", "rookie_year": 2002, "region": "California", "team_number": 846, "location": "San Jose, California, USA", "key": "frc846", "country_name": "USA", "motto": "Build. Learn. Inspire.", "nickname": "The Funky Monkeys"}, {"website": "http://www.athenianrobotics.org", "name": "Abbott Laboratories / GoPro / SolidWorks / Shane's Water Cutting / Ray McKenzie-Wilson / Eldridge Family / Braddock & Logan & the Athenian School", "locality": "Danville", "rookie_year": 2002, "region": "California", "team_number": 852, "location": "Danville, California, USA", "key": "frc852", "country_name": "USA", "motto": "What can I do to help?", "nickname": "The Athenian Robotics Collective"}, {"website": "http://www.frc971.org", "name": "NASA Ames Research Center/Google/St. Jude Medical Foundation/NVIDIA/Brin Wojcicki Foundation/Abbott Fund/DSS SolidWorks/The Linley Group/The McLain-Smith Family/Mountain View High School PTSA/The Crispie Family/Intuitive Surgical/Creative Manufacturing Solutions/Screen-Tech/Group Manufacturing Services/Calmax Technology/EKG Precision Machining/Givmar Precision Machining/RDC Machine/Whizz Systems, Inc. & Mountain View High", "locality": "Mountain View", "rookie_year": 2002, "region": "California", "team_number": 971, "location": "Mountain View, California, USA", "key": "frc971", "country_name": "USA", "motto": "\"If you wanna build robots, you've got to break a few small appliances\"", "nickname": "Spartan Robotics"}, {"website": "http://www.ironclaw972.org", "name": "Los Gatos High School New Millenium Foundation / Qualcomm / Brin-Wojcicki Foundation / Intuitive Surgical / Los Gatos ACE Hardware / Rural Supply Hardware / Alain Pinel Realtors - Los Gatos & Los Gatos High", "locality": "Los Gatos", "rookie_year": 2002, "region": "CA", "team_number": 972, "location": "Los Gatos, CA, USA", "key": "frc972", "country_name": "USA", "motto": null, "nickname": "Iron Claw"}]